id,name,carrier,technology,component,country,p_nom,max_hours,volume_mm3,damheight_m,yearcommissioned,retrofit,lat,lon,projectid,yeardecommissioning,bus
26,Markersbach psw markersbach pss markersbach germany,hydro,Pumped Storage,Store,DE,1045.2,3.816494450822809,6.3,285.0,1979,1979.0,50.51938,12.87976,"{'JRC': ['H13'], 'OPSD': ['BNA0652'], 'ENTSOE': ['11WD8MARK1H----7'], 'GEO': ['GEO44337'], 'CARMA': ['CARMA27280']}",2079,4559
55,Erzhausen psw erzhausen block erzhausen germany,hydro,Pumped Storage,Store,DE,220.0,4.681818181818182,1.6,287.0,1964,1998.0,51.89912,9.92452,"{'JRC': ['H208'], 'OPSD': ['BNA0558'], 'ENTSOE': ['11WD2ERZH0002682'], 'GEO': ['GEO44352'], 'CARMA': ['CARMA12680']}",2098,4763
65,Goldisthal psw goldisthal pss goldisthal germany,hydro,Pumped Storage,Store,DE,1052.0,7.652091254752853,12.0,302.0,2004,2004.0,50.50975864,11.02087498,"{'JRC': ['H12'], 'OPSD': ['BNA0350'], 'ENTSOE': ['11WD8GOLD1H----6'], 'GEO': ['GEO44336'], 'CARMA': ['CARMA15413']}",2104,4554
75,Koepchenwerk koepchenwerk koepchenwerk herdecke germany,hydro,Pumped Storage,Store,DE,165.0,3.206060606060606,1.533,155.0,1989,1989.0,51.41048,7.4531399999999906,"{'JRC': ['H291'], 'OPSD': ['BNA0443'], 'ENTSOE': ['11WD7KOEP2P--KWG'], 'GEO': ['GEO44351'], 'CARMA': ['CARMA22597']}",2089,4689
94,Niederaußem,lignite,OCGT,PP,DE,3406.0,0.0,0.0,0.0,1965,2009.0,50.99569200000001,6.669038999999999,"{'OPSD': ['BNA0709', 'BNA0713', 'BNA0706', 'BNA0712', 'BNA0705', 'BNA0707', 'BNA0708'], 'ENTSOE': ['11WD7NIED-B-KW-5'], 'GPD': ['WRI1005979'], 'GEO': ['GEO44319'], 'CARMA': ['CARMA31142']}",2054,4629
97,Lünen,coal,OCGT,PP,DE,1208.0,0.0,0.0,0.0,1962,2013.0,51.61349328,7.475942649333332,"{'OPSD': ['BNA0619', 'BNA0618', 'BNA1508'], 'ENTSOE': ['11WD7LUNE2S--KW8', '11WD7KWHU----KW9'], 'GPD': ['WRI1005911'], 'GEO': ['GEO44329', 'GEO45030'], 'CARMA': ['CARMA26211']}",2058,4691
117,Waldeck bringhausen waldeck waldeck germany,hydro,Pumped Storage,Store,DE,580.0,6.656896551724138,5.136,620.0,1931,2009.0,51.1665695,9.046466,"{'JRC': ['H74', 'H357'], 'OPSD': ['BNA0229', 'BNA0228'], 'ENTSOE': ['11WD2W2--0002757'], 'GEO': ['GEO44356', 'GEO44355'], 'CARMA': ['CARMA48779']}",2109,4738
221,Gundremmingen,nuclear,OCGT,PP,DE,1288.0,0.0,0.0,0.0,1984,1984.0,48.51608,10.39822,"{'OPSD': ['BNA0382'], 'ENTSOE': ['11WD7KRBG1K-KW-V'], 'GEO': ['GEO3430'], 'CARMA': ['CARMA16304']}",2034,3492
227,Grohnde,nuclear,OCGT,PP,DE,1360.0,0.0,0.0,0.0,1985,1985.0,52.035641,9.413497,"{'OPSD': ['BNA0251'], 'ENTSOE': ['11WD2GHKW000296G'], 'GEO': ['GEO3414'], 'CARMA': ['CARMA15978']}",2035,4592
230,Cuno herdecke,CCGT,CCGT,CHP,DE,417.0,0.0,0.0,0.0,2007,2007.0,51.40313,7.4155,"{'OPSD': ['BNA0442'], 'ENTSOE': ['11WD7GARE5XHEKWQ'], 'GEO': ['GEO44313'], 'CARMA': ['CARMA17529']}",2047,4689
232,Herne,coal,OCGT,CHP,DE,449.0,0.0,0.0,0.0,1989,2013.0,51.550753,7.187481,"{'OPSD': ['BNA0450'], 'ENTSOE': ['11WD7HERN2S--KWU'], 'GEO': ['GEO44213'], 'CARMA': ['CARMA17557']}",2058,4676
233,Heyden,coal,OCGT,PP,DE,875.0,0.0,0.0,0.0,1987,1987.0,52.38279238,8.996004114,"{'OPSD': ['BNA0793'], 'ENTSOE': ['11WD2HEKW000297X'], 'GEO': ['GEO44199'], 'CARMA': ['CARMA17614']}",2032,4743
236,Huckingen,CCGT,CCGT,PP,DE,606.0,0.0,0.0,0.0,1976,2011.0,51.36787,6.7167,"{'OPSD': ['BNA0486', 'BNA0485'], 'ENTSOE': ['11WD7HUCK2G--KWR'], 'GEO': ['GEO44335', 'GEO44467'], 'CARMA': ['CARMA18741']}",2051,4664
237,Heilbronn,coal,OCGT,CHP,DE,1028.0,0.0,0.0,0.0,1965,2010.0,49.177334,9.206318,"{'OPSD': ['BNA0432', 'BNA0433', 'BNA0434'], 'ENTSOE': ['11WD4HLBR1CS---A'], 'GEO': ['GEO44464'], 'CARMA': ['CARMA17333']}",2055,4713
238,Ibbenbüren,coal,OCGT,PP,DE,794.0,0.0,0.0,0.0,1985,2009.0,52.28881179,7.747906179,"{'OPSD': ['BNA0493'], 'ENTSOE': ['11WD7IBBE2S--KW6'], 'GEO': ['GEO44468'], 'CARMA': ['CARMA19019']}",2054,4700
240,Ingolstadt,oil,OCGT,PP,DE,772.0,0.0,0.0,0.0,1973,1974.0,48.761412,11.503001,"{'OPSD': ['BNA0378', 'BNA0379'], 'ENTSOE': ['11WD2INGO0001783'], 'GEO': ['GEO44469'], 'CARMA': ['CARMA19389']}",2014,3305
242,Gemeinschaftskraftwerk irsching,CCGT,CCGT,PP,DE,1407.0,0.0,0.0,0.0,2010,2011.0,48.76702,11.580033,"{'OPSD': ['BNA0994', 'BNA0995'], 'ENTSOE': ['11WD2IRSC000179N'], 'GEO': ['GEO44483', 'GEO44306', 'GEO44305'], 'CARMA': ['CARMA65986', 'CARMA19580']}",2051,3305
243,Isar,nuclear,OCGT,PP,DE,1410.0,0.0,0.0,0.0,1988,1988.0,48.6046,12.295069999999999,"{'OPSD': ['BNA0263'], 'ENTSOE': ['11WD2ISKW000299Q'], 'GEO': ['GEO3688'], 'CARMA': ['CARMA19606']}",2038,3319
244,Jänschwalde,lignite,OCGT,PP,DE,2790.0,0.0,0.0,0.0,1981,1996.0,51.83444099,14.45903778,"{'OPSD': ['BNA0790', 'BNA0785', 'BNA0787', 'BNA0786', 'BNA0789', 'BNA0788'], 'ENTSOE': ['11WD8JAEN1L----Z'], 'GEO': ['GEO44195'], 'CARMA': ['CARMA20075']}",2041,4540
246,Rheinhafen dampfkraftwerk,coal,OCGT,CHP,DE,1351.0,0.0,0.0,0.0,1985,2014.0,49.0125,8.302778,"{'OPSD': ['BNA0518b', 'BNA0518a'], 'ENTSOE': ['11WD4DAXLA-S---T'], 'GEO': ['GEO44470'], 'CARMA': ['CARMA21331', 'CARMA36849']}",2059,3466
248,Klingenberg,OCGT,OCGT,CHP,DE,164.0,0.0,0.0,0.0,1981,2017.0,52.48891639,13.49696159,"{'OPSD': ['BNA0081'], 'ENTSOE': ['11WD8KLIN5X----0'], 'GEO': ['GEO43189'], 'CARMA': ['CARMA22458']}",2057,4544
249,Knapsack,CCGT,CCGT,PP,DE,1230.0,0.0,0.0,0.0,2006,2013.0,50.861708,6.842353,"{'OPSD': ['BNA0548b', 'BNA0548a'], 'ENTSOE': ['11WD7KWKN1GBL203', '11WD7KWKN----KW1'], 'GEO': ['GEO44472', 'GEO44314'], 'CARMA': ['CARMA22511']}",2053,4779
255,Dresden nossener brücke,CCGT,CCGT,CHP,DE,260.0,0.0,0.0,0.0,1995,1995.0,51.042119,13.708597,"{'OPSD': ['BNA0207'], 'ENTSOE': ['11WD8DRES5X---PZ'], 'GEO': ['GEO44315'], 'CARMA': ['CARMA31724']}",2035,4527
261,Braunkohlekraftwerk lippendorf,lignite,OCGT,PP,DE,1750.0,0.0,0.0,0.0,1999,2000.0,51.182122,12.373287,"{'OPSD': ['BNA0116', 'BNA0115'], 'ENTSOE': ['11WD8LIPD1L----P'], 'GEO': ['GEO44197'], 'CARMA': ['CARMA25377']}",2045,4553
262,Philippsburg,nuclear,OCGT,PP,DE,1402.0,0.0,0.0,0.0,1985,1985.0,49.252722,8.435436,"{'OPSD': ['BNA0802'], 'ENTSOE': ['11WD4KKP21N-S--O'], 'GEO': ['GEO4780'], 'CARMA': ['CARMA34448']}",2035,4709
266,Reuter west,coal,OCGT,CHP,DE,688.0,0.0,0.0,0.0,1969,1988.0,52.53410728,13.243787506666667,"{'OPSD': ['BNA0082', 'BNA0086', 'BNA0087'], 'ENTSOE': ['11WD8REUW1C----4'], 'GEO': ['GEO44463'], 'CARMA': ['CARMA37138']}",2033,5539
269,Neurath,lignite,OCGT,PP,DE,2091.0,0.0,0.0,0.0,1972,1976.0,51.039475,6.615041000000002,"{'OPSD': ['BNA0700', 'BNA0698', 'BNA0697', 'BNA0696', 'BNA0699'], 'ENTSOE': ['11WD7NEUR-B-KW-B'], 'GEO': ['GEO44210', 'GEO44209'], 'CARMA': ['CARMA30912']}",2021,4634
270,Neckarwestheim,nuclear,OCGT,PP,DE,1310.0,0.0,0.0,0.0,1989,1989.0,49.041111,9.175,"{'OPSD': ['BNA0686'], 'ENTSOE': ['11WD4GKNK1S----S'], 'GEO': ['GEO4453'], 'CARMA': ['CARMA30731']}",2039,4852
273,Nord,coal,OCGT,CHP,DE,332.7,0.0,0.0,0.0,1991,1991.0,48.180506,11.639612,"{'OPSD': ['BNA0969b'], 'ENTSOE': ['11WD2NO2K000308Z', '11WD2WBNK000318M'], 'GEO': ['GEO44308'], 'CARMA': ['CARMA29845']}",2036,3314
278,Kwm,coal,OCGT,PP,DE,690.0,0.0,0.0,0.0,1979,2003.0,52.3150224,10.09141738,"{'OPSD': ['BNA0464'], 'ENTSOE': ['11WD2MEHR2CSWH-O'], 'GEO': ['GEO44476'], 'CARMA': ['CARMA27905']}",2048,4769
281,Mainz,CCGT,CCGT,PP,DE,769.2,0.0,0.0,0.0,1976,2000.0,50.025813,8.2404275,"{'OPSD': ['BNA0626', 'BNA0627'], 'ENTSOE': ['11WD7BISC5GKW23O'], 'GEO': ['GEO44316'], 'CARMA': ['CARMA26667']}",2040,4618
282,Industriekraftwerk ludwigshafen,CCGT,CCGT,PP,DE,12.0,0.0,0.0,0.0,2003,2003.0,49.453181,8.433591999999999,"{'OPSD': ['BNA1196b'], 'ENTSOE': ['11WD7LUDW2GA800M'], 'GEO': ['GEO44310'], 'CARMA': ['CARMA26120', 'CARMA26121']}",2043,4720
287,Gersteinwerk,CCGT,CCGT,PP,DE,632.0,0.0,0.0,0.0,1973,1984.0,51.672453000000004,7.709947000000001,"{'OPSD': ['BNA1040', 'BNA1046b', 'BNA1039', 'BNA1042', 'BNA1045'], 'ENTSOE': ['11WD7GERS-X-KW-C'], 'GEO': ['GEO44438'], 'CARMA': ['CARMA14984']}",2024,4644
293,Altbach deizisau,coal,OCGT,CHP,DE,769.0,0.0,0.0,0.0,1985,2012.0,48.717611,9.374917,"{'OPSD': ['BNA0020', 'BNA0019'], 'ENTSOE': ['11WD4AL1KU1-S--E'], 'GEO': ['GEO44303'], 'CARMA': ['CARMA1146']}",2057,3484
302,Bergkamen,coal,OCGT,PP,DE,717.0,0.0,0.0,0.0,1981,1981.0,51.63702,7.6191,"{'OPSD': ['BNA0067'], 'ENTSOE': ['11WD7BERG1S--KWB'], 'GEO': ['GEO44212'], 'CARMA': ['CARMA4133', 'CARMA4135']}",2026,4691
303,Mitte,CCGT,CCGT,CHP,DE,444.0,0.0,0.0,0.0,1996,1996.0,52.51172353,13.420915599999999,"{'OPSD': ['BNA0073'], 'ENTSOE': ['11WD8MITT5G----0'], 'GEO': ['GEO44304'], 'CARMA': ['CARMA4170', 'CARMA28756']}",2036,4544
305,Bexbach,coal,OCGT,PP,DE,726.0,0.0,0.0,0.0,1983,1983.0,49.363481,7.2371360000000005,"{'OPSD': ['BNA0093'], 'ENTSOE': ['11WD7MITB1C----N'], 'GEO': ['GEO44325'], 'CARMA': ['CARMA4305']}",2028,4607
307,Walheim,coal,OCGT,PP,DE,244.0,0.0,0.0,0.0,1964,2011.0,49.017472,9.157389,"{'OPSD': ['BNA1006', 'BNA1005'], 'ENTSOE': ['11WD4WALK5G----E'], 'GPD': ['WRI1075565'], 'CARMA': ['CARMA48803']}",2056,4852
309,Boxberg,lignite,OCGT,PP,DE,2427.0,0.0,0.0,0.0,1979,2012.0,51.4169923775,14.563911585,"{'OPSD': ['BNA0122', 'BNA0124', 'BNA0123', 'BNA1404'], 'ENTSOE': ['11WD8BOXB1L----J'], 'GEO': ['GEO44196'], 'CARMA': ['CARMA5476']}",2057,4548
316,Rheinhafen dampfkraftwerk,CCGT,CCGT,PP,DE,353.0,0.0,0.0,0.0,1998,1998.0,49.0125,8.302778,"{'OPSD': ['BNA0514'], 'ENTSOE': ['11WD4DAXLA-2S--6'], 'GPD': ['WRI1006025'], 'GEO': ['GEO44471']}",2038,3466
328,Gkm,coal,OCGT,CHP,DE,1958.0,0.0,0.0,0.0,1982,2015.0,49.445694,8.490444,"{'OPSD': ['BNA0646a', 'BNA0646b', 'BNA0644', 'BNA0645'], 'ENTSOE': ['11WD4GKM-2CD7--7'], 'GPD': ['WRI1005699'], 'CARMA': ['CARMA15201']}",2060,4720
332,Emsland,nuclear,OCGT,PP,DE,1336.0,0.0,0.0,0.0,1988,1988.0,52.481878,7.3066580000000005,"{'OPSD': ['BNA0607'], 'ENTSOE': ['11WD7KKE-1K--KW5'], 'GEO': ['GEO3071'], 'CARMA': ['CARMA12432']}",2038,4695
337,Dormagen,CCGT,CCGT,PP,DE,586.0,0.0,0.0,0.0,2000,2000.0,51.07908,6.828710000000001,"{'OPSD': ['BNA0199'], 'ENTSOE': ['11WD7BRAU5G-KW-N'], 'GEO': ['GEO44311'], 'CARMA': ['CARMA11163']}",2040,4622
341,Emsland,CCGT,CCGT,PP,DE,1837.0,0.0,0.0,0.0,1973,2010.0,52.48187800000001,7.3066580000000005,"{'OPSD': ['BNA0605', 'BNA0604', 'BNA0602', 'BNA0603', 'BNA0606'], 'ENTSOE': ['11WD7EMSL-G-KW-T'], 'GEO': ['GEO44323'], 'CARMA': ['CARMA12440', 'CARMA12439']}",2050,4695
349,Franken,CCGT,CCGT,PP,DE,823.0,0.0,0.0,0.0,1973,1976.0,49.420836,11.007736999999999,"{'OPSD': ['BNA0744', 'BNA0745'], 'ENTSOE': ['11WD2GEBE000177K'], 'GEO': ['GEO44466'], 'CARMA': ['CARMA13964']}",2016,4760
350,Frimmersdorf,lignite,OCGT,CHP,DE,562.0,0.0,0.0,0.0,1966,1990.0,51.05744518,6.577080395,"{'OPSD': ['BNA0314', 'BNA0313'], 'ENTSOE': ['11WD7FRIM2B-KW-M'], 'GEO': ['GEO44211'], 'CARMA': ['CARMA14153']}",2035,4634
355,Brokdorf,nuclear,OCGT,PP,DE,1410.0,0.0,0.0,0.0,1986,1986.0,53.851094999999994,9.345944,"{'OPSD': ['BNA0157'], 'ENTSOE': ['11WD2BRKW000294C'], 'GEO': ['GEO2440'], 'CARMA': ['CARMA5873']}",2036,5668
362,Charlottenburg,OCGT,OCGT,PP,DE,144.0,0.0,0.0,0.0,1975,2000.0,52.52185624,13.31109524,"{'OPSD': ['BNA0074'], 'ENTSOE': ['11WD8CHAR5X----K'], 'GEO': ['GEO44331'], 'CARMA': ['CARMA7998']}",2040,5539
472,Walsum,coal,OCGT,CHP,DE,1095.0,0.0,0.0,0.0,1988,2013.0,51.52672000000001,6.71868,"{'OPSD': ['BNA0216a', 'BNA0216b'], 'ENTSOE': ['11WD7WALS1S--KW0'], 'GEO': ['GEO44328'], 'CARMA': ['CARMA48832']}",2058,4666
473,Wedel,coal,OCGT,CHP,DE,260.0,0.0,0.0,0.0,1961,1993.0,53.56695702,9.724445343,"{'OPSD': ['BNA0404', 'BNA0403'], 'ENTSOE': ['11WD8WED15C----Q'], 'GEO': ['GEO44460'], 'CARMA': ['CARMA49123']}",2038,5676
474,Weiher,coal,OCGT,PP,DE,655.6,0.0,0.0,0.0,1976,2006.0,49.33413028,7.031355927999999,"{'OPSD': ['BNA0820'], 'ENTSOE': ['11WD7WEIH2S--KWV'], 'GEO': ['GEO44327'], 'CARMA': ['CARMA49157']}",2051,4608
475,Weisweiler,lignite,OCGT,PP,DE,1961.0,0.0,0.0,0.0,1965,1975.0,50.839166999999996,6.321111,"{'OPSD': ['BNA1026', 'BNA1027', 'BNA1028', 'BNA1025'], 'ENTSOE': ['11WD7WEIS-B-KW-C'], 'GEO': ['GEO44318'], 'CARMA': ['CARMA49187']}",2020,4625
476,Westfalen,coal,OCGT,PP,DE,763.7,0.0,0.0,0.0,2014,2014.0,51.680278,7.969722,"{'OPSD': ['BNA0413c'], 'ENTSOE': ['11WD7WEST1S-KW-K'], 'GEO': ['GEO44475', 'GEO44481'], 'CARMA': ['CARMA49440']}",2059,4692
477,Wilhelmshaven,coal,OCGT,PP,DE,1488.0,0.0,0.0,0.0,1976,2015.0,53.5722585,8.139465000000001,"{'OPSD': ['BNA1061', 'BNA1674'], 'ENTSOE': ['11WD2WILK000286V', '11WD2WI1K000303F'], 'GEO': ['GEO44461'], 'CARMA': ['CARMA49710']}",2060,5643
478,Wilmersdorf,oil,OCGT,CHP,DE,184.0,0.0,0.0,0.0,1977,1977.0,52.48159366,13.30761909,"{'OPSD': ['BNA0083'], 'ENTSOE': ['11WD8WILM5O----7'], 'GEO': ['GEO44332'], 'CARMA': ['CARMA49753']}",2017,4544
479,Zolling,coal,OCGT,CHP,DE,472.0,0.0,0.0,0.0,1985,2011.0,48.455353,11.799456,"{'OPSD': ['BNA1093'], 'ENTSOE': ['11WD2ZOLL0002880'], 'GEO': ['GEO44462'], 'CARMA': ['CARMA51056']}",2056,3312
496,Kng rostock,coal,OCGT,PP,DE,514.0,0.0,0.0,0.0,1994,1994.0,54.14282177,12.13287489,"{'OPSD': ['BNA0849'], 'ENTSOE': ['11WD8ROST1C---P5'], 'GEO': ['GEO44473'], 'CARMA': ['CARMA38027']}",2039,5544
502,Schkopau,lignite,OCGT,PP,DE,900.0,0.0,0.0,0.0,1996,1996.0,51.39845463,11.9504201,"{'OPSD': ['BNA0879', 'BNA0878'], 'ENTSOE': ['11WD8SCHK1L----O'], 'GEO': ['GEO43186'], 'CARMA': ['CARMA40111']}",2041,4561
503,Scholven,coal,OCGT,PP,DE,690.0,0.0,0.0,0.0,1968,1969.0,51.60236802,7.009894096,"{'OPSD': ['BNA0331', 'BNA0332'], 'ENTSOE': ['11WD7SCHO-S--KWW'], 'GEO': ['GEO40883'], 'CARMA': ['CARMA40153']}",2014,4667
504,Schwarze pumpe,lignite,OCGT,PP,DE,1500.0,0.0,0.0,0.0,1997,1998.0,51.53482028,14.35312271,"{'OPSD': ['BNA0914', 'BNA0915'], 'ENTSOE': ['11WD8SWPU1L----5'], 'GEO': ['GEO44459'], 'CARMA': ['CARMA40231']}",2043,4547
508,Staudinger,coal,OCGT,CHP,DE,510.0,0.0,0.0,0.0,1992,1992.0,50.08855300000001,8.953399000000003,"{'OPSD': ['BNA0377'], 'ENTSOE': ['11WD2STAU0001800'], 'GEO': ['GEO44208'], 'CARMA': ['CARMA43107']}",2037,4733
566,Wehr wehr wehr germany,hydro,Pumped Storage,Store,DE,910.0,8.68131868131868,4.4,0.0,1975,1976.0,47.64529898,7.91819945,"{'JRC': ['H21'], 'OPSD': ['BNA1019'], 'GEO': ['GEO44456'], 'CARMA': ['CARMA49141']}",2076,3458
584,Pumpspeicherwerk rönkhausen rönkhausen germany rönkhausen germany,hydro,Pumped Storage,Store,DE,138.0,4.27536231884058,1.0,265.0,1969,2003.0,51.22475,7.99281,"{'JRC': ['H372'], 'OPSD': ['BNA0268'], 'GEO': ['GEO44354'], 'CARMA': ['CARMA37921']}",2103,4678
593,Wendefurth wendefurth germany wendefurth germany,hydro,Pumped Storage,Store,DE,79.7,6.9134253450439145,1.97,126.0,1967,1967.0,51.74223,10.91879,"{'JRC': ['H623'], 'OPSD': ['BNA1031'], 'GEO': ['GEO44353'], 'CARMA': ['CARMA49224']}",2067,4767
596,Hohenwarte,hydro,Pumped Storage,Store,DE,379.8,6.411269088994207,6.279999999999999,360.0,1959,1965.0,50.614668115,11.492064185,"{'JRC': ['H750', 'H135'], 'OPSD': ['BNA0465', 'BNA0467'], 'ENTSOE': ['11WD8HOH22H----1'], 'CARMA': ['CARMA18067']}",2065,4501
608,Rheinkraftwerk iffezheim rheinkraftwerk iffezheim,hydro,Run-Of-River,Store,DE,146.0,0.0,0.0,0.0,1978,1978.0,48.83135,8.112160000000001,"{'JRC': ['H340'], 'OPSD': ['BNA0494'], 'ENTSOE': ['11WD4IFFE5G----Z'], 'CARMA': ['CARMA19094']}",2078,3464
612,Geesthacht,hydro,Pumped Storage,Store,DE,119.1,5.373635600335852,3.6,80.0,1958,1958.0,53.42605,10.3359,"{'JRC': ['H432'], 'OPSD': ['BNA0327'], 'ENTSOE': ['11WD8GEHA5H----R'], 'CARMA': ['CARMA14808']}",2058,5685
636,Rheinfelden,hydro,Run-Of-River,Store,DE,46.7,0.0,0.0,0.0,2010,2010.0,47.56990573,7.810113464,"{'JRC': ['H884'], 'OPSD': ['BNA0835'], 'ENTSOE': ['11WD4KWRHF5-S--Z'], 'CARMA': ['CARMA37180', 'CARMA49260', 'CARMA37179']}",2110,3458
712,Schwabstadl,hydro,Run-Of-River,Store,DE,12.0,0.0,0.0,0.0,1981,1981.0,48.148375,10.867023,"{'JRC': ['H1668'], 'OPSD': ['BNA1245'], 'GPD': ['WRI1030376'], 'CARMA': ['CARMA40212']}",2081,3499
861,Voelklingen,coal,OCGT,PP,DE,390.0,0.0,0.0,0.0,1983,1983.0,49.2556226,6.8588948000000025,"{'ENTSOE': ['11WD7VOLK5S--KWI'], 'GEO': ['GEO44330'], 'CARMA': ['CARMA48515', 'CARMA48514']}",2028,4608
868,Elverlingsen,coal,OCGT,PP,DE,325.0,0.0,0.0,0.0,1983,1983.0,51.2753369,7.706670699999999,"{'ENTSOE': ['11WD7GARE5XELKWD'], 'GEO': ['GEO6033'], 'CARMA': ['CARMA49248']}",2028,4688
879,Kraftwerk voerde,coal,OCGT,PP,DE,1390.0,0.0,0.0,0.0,2005,2005.0,51.6005212,6.654411099999999,"{'ENTSOE': ['11WD7VOER1S--KWG'], 'GEO': ['GEO44200'], 'CARMA': ['CARMA48464', 'CARMA49302']}",2050,4642
915,Mittelsbüren,CCGT,CCGT,PP,DE,444.5,0.0,0.0,0.0,2016,2016.0,53.12891,8.68524,"{'OPSD': ['BNA1820'], 'ENTSOE': ['11WD2GKBB000334V', '11WD2BMIT0002731'], 'CARMA': ['CARMA28759']}",2056,5739
916,Merkenich,CCGT,CCGT,CHP,DE,123.5,0.0,0.0,0.0,2004,2010.0,51.0178545,6.964197499999999,"{'OPSD': ['BNA1182', 'BNA0546'], 'ENTSOE': ['11WD7FUEH5GMEKW7'], 'CARMA': ['CARMA28116']}",2050,4650
918,Gkl,CCGT,CCGT,PP,DE,230.0,0.0,0.0,0.0,1998,2013.0,52.372917,9.714194,"{'OPSD': ['BNA0418'], 'ENTSOE': ['11WD2LIND5G----6'], 'CARMA': ['CARMA25307']}",2053,4768
920,Leipzig nord,CCGT,CCGT,CHP,DE,167.0,0.0,0.0,0.0,1996,2010.0,51.35119,12.37843,"{'OPSD': ['BNA0588'], 'ENTSOE': ['11WD8LEIP5X----6'], 'CARMA': ['CARMA24884']}",2050,4553
923,Gemeinschaftskraftwerk kiel,coal,OCGT,CHP,DE,323.0,0.0,0.0,0.0,1970,1992.0,54.33945,10.1766,"{'OPSD': ['BNA0526'], 'ENTSOE': ['11WD2KIKW000301W'], 'CARMA': ['CARMA22058']}",2037,5684
925,Burghausen,CCGT,CCGT,CHP,DE,170.0,0.0,0.0,0.0,1979,2001.0,48.186212,12.845768,"{'OPSD': ['BNA0172b', 'BNA0172a'], 'ENTSOE': ['11WD2BUKW000310A'], 'CARMA': ['CARMA6289']}",2041,3320
927,Huntorf,OCGT,OCGT,PP,DE,321.0,0.0,0.0,0.0,1978,2006.0,53.18969,8.40869,"{'OPSD': ['BNA0239'], 'ENTSOE': ['11WD2HUKW000298J'], 'CARMA': ['CARMA18872']}",2046,5661
928,Hastedt,coal,OCGT,CHP,DE,119.0,0.0,0.0,0.0,2014,2014.0,53.060080000000006,8.873280000000003,"{'OPSD': ['BNA0144'], 'ENTSOE': ['11WD2BHAS000271O'], 'CARMA': ['CARMA17086']}",2059,5662
929,Gkh,coal,OCGT,CHP,DE,272.0,0.0,0.0,0.0,1989,1989.0,52.42,9.648611,"{'OPSD': ['BNA0421', 'BNA0420'], 'ENTSOE': ['11WD2HANN5C----0'], 'CARMA': ['CARMA16816']}",2034,4768
930,Hafen,coal,OCGT,PP,DE,303.0,0.0,0.0,0.0,1979,1979.0,53.124860999999996,8.728657,"{'OPSD': ['BNA0146'], 'ENTSOE': ['11WD2BHAF000272F'], 'CARMA': ['CARMA16476']}",2024,5739
934,Farge,coal,OCGT,PP,DE,350.0,0.0,0.0,0.0,1969,2007.0,53.20206653,8.516153926,"{'OPSD': ['BNA0147'], 'ENTSOE': ['11WD2FARK000287K'], 'CARMA': ['CARMA13152']}",2052,5661
946,Süd,CCGT,CCGT,CHP,DE,651.9,0.0,0.0,0.0,1980,2004.0,48.1351253,11.5819806,"{'OPSD': ['BNA0684b', 'BNA0684c', 'BNA0683a', 'BNA0684a', 'BNA0683b', 'BNA0683c'], 'GEO': ['GEO44307'], 'CARMA': ['CARMA29846', 'CARMA30870']}",2044,3314
973,Gersteinwerk,coal,OCGT,PP,DE,614.0,0.0,0.0,0.0,1984,1984.0,51.672453000000004,7.7099470000000005,"{'OPSD': ['BNA1046a'], 'GEO': ['GEO44437'], 'CARMA': ['CARMA49273']}",2029,4644
983,Moabit,coal,OCGT,CHP,DE,89.0,0.0,0.0,0.0,1989,1990.0,52.53735111,13.34611416,"{'OPSD': ['BNA0085a'], 'ENTSOE': ['11WD8MOAB5X----5'], 'CARMA': ['CARMA28839']}",2035,5539
984,Niederrad,OCGT,OCGT,CHP,DE,70.0,0.0,0.0,0.0,2004,2004.0,50.0856,8.62785,"{'OPSD': ['BNA0285'], 'ENTSOE': ['11WD2NDR-000204Q'], 'CARMA': ['CARMA17948']}",2044,4781
1049,Tiefstack,coal,OCGT,CHP,DE,194.0,0.0,0.0,0.0,1993,1993.0,53.52616631,10.06317616,"{'OPSD': ['BNA0402'], 'ENTSOE': ['11WD8TIEF5X----V'], 'CARMA': ['CARMA45410']}",2038,5682
1052,Iks pck schwedt,oil,OCGT,CHP,DE,333.5,0.0,0.0,0.0,1972,2011.0,53.098180000000006,14.234539999999999,"{'OPSD': ['BNA0894b', 'BNA0894e', 'BNA0894a', 'BNA0894c', 'BNA0894d'], 'ENTSOE': ['11WD8SCHW5X----D'], 'CARMA': ['CARMA40243']}",2051,5540
1053,Sandreuth,CCGT,CCGT,CHP,DE,150.0,0.0,0.0,0.0,2005,2005.0,49.438611,11.060556,"{'OPSD': ['BNA0743', 'BNA0742'], 'ENTSOE': ['11WD2SRKW000345J'], 'CARMA': ['CARMA39433']}",2045,4765
1054,Römerbrücke,coal,OCGT,CHP,DE,50.0,0.0,0.0,0.0,1989,2005.0,49.223898999999996,7.0148990000000015,"{'OPSD': ['BNA0861b'], 'ENTSOE': ['11WD7UCHT5XROSOK'], 'CARMA': ['CARMA37892']}",2050,4608
1289,Brunsbüttel,oil,OCGT,PP,DE,256.0,0.0,0.0,0.0,1982,1982.0,53.8988902,9.133885300000001,"{'ENTSOE': ['11WD8BRUN1O----D'], 'GEO': ['GEO44334'], 'CARMA': ['CARMA6003']}",2022,5664
1321,Hamm uentrop,CCGT,CCGT,PP,DE,850.0,0.0,0.0,0.0,1994,1994.0,51.68807959999999,7.9464763,"{'ENTSOE': ['11WD7STUM----KW9'], 'GEO': ['GEO44312'], 'CARMA': ['CARMA16719', 'CARMA16720']}",2034,4644
1331,Kraftwerk lausward,OCGT,OCGT,PP,DE,1145.0,0.0,0.0,0.0,1994,1994.0,51.2216873,6.7316442,"{'ENTSOE': ['11WD7NORF5G--KWG'], 'GEO': ['GEO44480'], 'CARMA': ['CARMA24650']}",2034,4633
1422,Schwammenauel,hydro,Run-Of-River,Store,DE,14.0,0.0,0.0,0.0,1938,1938.0,50.628507,6.479111,"{'JRC': ['H1579'], 'OPSD': ['BNA1152'], 'CARMA': ['CARMA40220']}",2038,4627
1428,Scheuring,hydro,Run-Of-River,Store,DE,12.2,0.0,0.0,0.0,1980,1980.0,48.180229,10.8833102,"{'JRC': ['H1653'], 'OPSD': ['BNA1246'], 'CARMA': ['CARMA40095']}",2080,3499
1458,Serrig,hydro,Run-Of-River,Store,DE,12.1,0.0,0.0,0.0,1985,1985.0,49.566953999999896,6.592347999999991,"{'JRC': ['H1656'], 'OPSD': ['BNA1143'], 'CARMA': ['CARMA40666']}",2085,4599
1481,Rain,hydro,Run-Of-River,Store,DE,10.9,0.0,0.0,0.0,1956,1956.0,48.692383,10.897786,"{'JRC': ['H1721'], 'OPSD': ['BNA1235'], 'CARMA': ['CARMA36460']}",2056,3501
1488,Saeckingen,hydro,Pumped Storage,Store,DE,598.5999999999998,3.1172736384898085,2.1,400.0,1966,1966.0,47.5590842,7.955882150000001,"{'JRC': ['H292', 'H91', 'H2492'], 'OPSD': ['BNA0045', 'BNA0046'], 'CARMA': ['CARMA38497', 'CARMA38496']}",2066,3458
1495,Rudolf fettweis,hydro,Run-Of-River,Store,DE,65.0,0.0,0.0,0.0,1918,1926.0,48.67128595,8.354376729,"{'JRC': ['H699'], 'OPSD': ['BNA0279', 'BNA0278'], 'CARMA': ['CARMA38207']}",2026,3464
1505,Rosenheim,hydro,Run-Of-River,Store,DE,35.1,0.0,0.0,0.0,1960,1960.0,47.83825,12.15333,"{'JRC': ['H1060'], 'OPSD': ['BNA0839'], 'CARMA': ['CARMA37978']}",2060,3304
1509,Stammham,hydro,Run-Of-River,Store,DE,23.2,0.0,0.0,0.0,1955,1955.0,48.24932,12.86469,"{'JRC': ['H1311'], 'OPSD': ['BNA0921'], 'CARMA': ['CARMA43037']}",2055,3320
1512,Waldshut,hydro,Pumped Storage,Store,DE,150.0,3.2,1.35,160.0,1951,1951.0,47.61777,8.1926,"{'JRC': ['H330'], 'OPSD': ['BNA1003'], 'CARMA': ['CARMA48792']}",2051,3460
1514,Walchensee,hydro,Reservoir,Store,DE,124.0,0.0,1.324,200.0,1924,1955.0,47.631353999999895,11.337054,"{'JRC': ['H415'], 'OPSD': ['BNA0540'], 'CARMA': ['CARMA48773']}",2055,3323
1517,Vohburg,hydro,Run-Of-River,Store,DE,23.3,0.0,0.0,0.0,1992,1992.0,48.778103,11.6011899999999,"{'JRC': ['H1310'], 'OPSD': ['BNA0996'], 'CARMA': ['CARMA48477']}",2092,3305
1529,Urspring,hydro,Run-Of-River,Store,DE,10.1,0.0,0.0,0.0,1966,1966.0,47.71598,10.825785,"{'JRC': ['H1734'], 'OPSD': ['BNA1191'], 'CARMA': ['CARMA47299']}",2066,3323
1531,Uppenborn,hydro,Run-Of-River,Store,DE,25.0,0.0,0.0,0.0,1930,1930.0,48.4734739999999,11.95481,"{'JRC': ['H1255'], 'OPSD': ['BNA1008'], 'CARMA': ['CARMA47193']}",2030,3312
1534,Unterbergen,hydro,Run-Of-River,Store,DE,12.4,0.0,0.0,0.0,1983,1983.0,48.237449,10.92718,"{'JRC': ['H1650'], 'OPSD': ['BNA1247'], 'CARMA': ['CARMA47154']}",2083,3499
1540,Zeltingen,hydro,Run-Of-River,Store,DE,13.6,0.0,0.0,0.0,1964,1964.0,49.951074,7.0231660000000025,"{'JRC': ['H1606'], 'OPSD': ['BNA1287'], 'CARMA': ['CARMA50956']}",2064,4611
1543,Dotierkraftwerk wyhlen am beckenpass,hydro,Run-Of-River,Store,DE,38.1147,0.0,0.0,0.0,1912,1912.0,47.54327846666667,7.691031366666667,"{'JRC': ['H2922', 'H3035', 'H1024'], 'OPSD': ['BNA0362'], 'CARMA': ['CARMA50234']}",2012,3458
1545,Witznau,hydro,Pumped Storage,Store,DE,220.0,3.2818181818181817,1.3,250.0,1943,1943.0,47.687909999999896,8.25159,"{'JRC': ['H209'], 'OPSD': ['BNA1071'], 'CARMA': ['CARMA49939']}",2043,3460
1546,Wintrich,hydro,Run-Of-River,Store,DE,20.0,0.0,0.0,0.0,1965,1965.0,49.879784,6.9487619999999914,"{'JRC': ['H1388'], 'OPSD': ['BNA1066'], 'CARMA': ['CARMA49874']}",2065,4611
1555,Unteropfingen,hydro,Run-Of-River,Store,DE,14.2,0.0,0.0,0.0,1924,1924.0,48.0612649,10.1284379,"{'JRC': ['H1570'], 'OPSD': ['BNA1175'], 'CARMA': ['CARMA47167']}",2024,3494
1561,Tannheim,hydro,Run-Of-River,Store,DE,12.3,0.0,0.0,0.0,1920,1920.0,48.00795,10.118537,"{'JRC': ['H1651'], 'OPSD': ['BNA1265'], 'CARMA': ['CARMA44546']}",2020,3494
1572,Straubing,hydro,Run-Of-River,Store,DE,21.5,0.0,0.0,0.0,1994,1994.0,48.89659,12.55752,"{'JRC': ['H1347'], 'OPSD': ['BNA0929'], 'CARMA': ['CARMA43420']}",2094,3324
1580,Wasserburg,hydro,Run-Of-River,Store,DE,24.1,0.0,0.0,0.0,1938,1938.0,48.05699,12.22074,"{'JRC': ['H1282'], 'OPSD': ['BNA1013'], 'CARMA': ['CARMA63844', 'CARMA48996']}",2038,3304
1581,Teufelsbruck,hydro,Run-Of-River,Store,DE,25.0,0.0,0.0,0.0,1938,1938.0,48.057359999999896,12.22093,"{'JRC': ['H1254'], 'OPSD': ['BNA0912'], 'CARMA': ['CARMA45135']}",2038,3304
1585,Trier,hydro,Run-Of-River,Store,DE,18.8,0.0,0.0,0.0,1962,1962.0,49.728029,6.624451,"{'JRC': ['H1435'], 'OPSD': ['BNA1269'], 'CARMA': ['CARMA46290']}",2062,4787
1590,Töging,hydro,Run-Of-River,Store,DE,85.3,0.0,0.0,0.0,1924,1924.0,48.2518176,12.5873078,"{'JRC': ['H588'], 'OPSD': ['BNA0950'], 'CARMA': ['CARMA45650']}",2024,3318
1617,Leitzach,hydro,Run-Of-River,Store,DE,92.0,0.0,0.0,0.0,1960,1983.0,47.873938,11.8709899999999,"{'JRC': ['H552'], 'OPSD': ['BNA0972', 'BNA0973'], 'CARMA': ['CARMA24891']}",2083,3304
1618,Lehmen,hydro,Run-Of-River,Store,DE,20.0,0.0,0.0,0.0,1962,1962.0,50.274724,7.458957000000002,"{'JRC': ['H1386'], 'OPSD': ['BNA0715'], 'CARMA': ['CARMA24862']}",2062,4612
1648,Psw langenprozelten,hydro,Pumped Storage,Store,DE,164.0,6.036585365853658,1.5,297.0,1974,1974.0,50.053129999999896,9.58137,"{'JRC': ['H295'], 'OPSD': ['BNA0337'], 'CARMA': ['CARMA24406']}",2074,4597
1656,Kachlet,hydro,Run-Of-River,Store,DE,53.7,0.0,0.0,0.0,1927,1927.0,48.57971120000001,13.408273800000002,"{'JRC': ['H806'], 'OPSD': ['BNA0782'], 'CARMA': ['CARMA20722']}",2027,3320
1660,Jochenstein,hydro,Run-Of-River,Store,DE,132.059,0.0,0.0,0.0,1955,1955.0,48.517445,13.7181195,"{'JRC': ['H2491', 'H3134'], 'OPSD': ['BNA0364'], 'CARMA': ['CARMA20445']}",2055,3320
1669,Ingolstadt,hydro,Run-Of-River,Store,DE,19.8,0.0,0.0,0.0,1971,1971.0,48.750316999999896,11.412153,"{'JRC': ['H1410'], 'OPSD': ['BNA1160'], 'CARMA': ['CARMA19390', 'CARMA19392']}",2071,3305
1673,Landau,hydro,Run-Of-River,Store,DE,12.6,0.0,0.0,0.0,1984,1984.0,48.667862,12.660027,"{'JRC': ['H1643'], 'OPSD': ['BNA1228'], 'CARMA': ['CARMA24343']}",2084,3324
1686,Koblenz,hydro,Run-Of-River,Store,DE,16.0,0.0,0.0,0.0,1951,1951.0,50.3658549999999,7.58171,"{'JRC': ['H1507'], 'OPSD': ['BNA1181'], 'CARMA': ['CARMA22560']}",2051,4614
1693,Kaufering,hydro,Run-Of-River,Store,DE,16.7,0.0,0.0,0.0,1975,1975.0,48.084026,10.864936,"{'JRC': ['H1483'], 'OPSD': ['BNA1169'], 'CARMA': ['CARMA21516']}",2075,3499
1695,Meitingen,hydro,Run-Of-River,Store,DE,11.3,0.0,0.0,0.0,1922,1922.0,48.546994,10.86507,"{'JRC': ['H1696'], 'OPSD': ['BNA1209'], 'CARMA': ['CARMA27927']}",2022,3502
1699,Perach,hydro,Run-Of-River,Store,DE,19.4,0.0,0.0,0.0,1977,1977.0,48.0261021,12.789632,"{'JRC': ['H1413'], 'OPSD': ['BNA0792'], 'CARMA': ['CARMA34193']}",2077,3318
1705,Passau ingling,hydro,Run-Of-River,Store,DE,86.4,0.0,0.0,0.0,1965,1965.0,48.55369,13.4356937,"{'JRC': ['H3282'], 'OPSD': ['BNA0784'], 'CARMA': ['CARMA33805']}",2065,3320
1722,Prittriching,hydro,Run-Of-River,Store,DE,12.1,0.0,0.0,0.0,1984,1984.0,48.21062,10.904933,"{'JRC': ['H1655'], 'OPSD': ['BNA1234'], 'CARMA': ['CARMA35811']}",2084,3499
1723,Prem,hydro,Run-Of-River,Store,DE,19.2,0.0,0.0,0.0,1971,1971.0,47.692726,10.797592,"{'JRC': ['H1415'], 'OPSD': ['BNA1192'], 'CARMA': ['CARMA35712']}",2071,3323
1737,Pielweichs,hydro,Run-Of-River,Store,DE,12.6,0.0,0.0,0.0,1994,1994.0,49.79434000000001,10.1813,"{'JRC': ['H1644'], 'OPSD': ['BNA1230'], 'CARMA': ['CARMA34566']}",2094,4777
1739,Pfrombach,hydro,Run-Of-River,Store,DE,22.3,0.0,0.0,0.0,1929,1929.0,48.44132000000001,11.99233,"{'JRC': ['H1329'], 'OPSD': ['BNA1213'], 'CARMA': ['CARMA34412']}",2029,3315
1745,Müden,hydro,Run-Of-River,Store,DE,16.4,0.0,0.0,0.0,1965,1965.0,52.521937,10.360381,"{'JRC': ['H1492'], 'OPSD': ['BNA1214'], 'CARMA': ['CARMA29730']}",2065,4771
1760,Merching,hydro,Run-Of-River,Store,DE,12.0,0.0,0.0,0.0,1978,1978.0,48.2704497,10.9773463,"{'JRC': ['H1667'], 'OPSD': ['BNA1210'], 'CARMA': ['CARMA28083']}",2078,3498
1765,Oberpeiching,hydro,Run-Of-River,Store,DE,11.9,0.0,0.0,0.0,1954,1954.0,48.646423,10.879086,"{'JRC': ['H1686'], 'OPSD': ['BNA1221'], 'CARMA': ['CARMA32085']}",2054,3501
1766,Mühltal,hydro,Run-Of-River,Store,DE,11.2,0.0,0.0,0.0,1924,1924.0,47.99629724,11.48542787,"{'JRC': ['H1700'], 'OPSD': ['BNA1263'], 'CARMA': ['CARMA29772', 'CARMA29773']}",2024,3314
1767,Obernach,hydro,Run-Of-River,Store,DE,12.8,0.0,0.0,0.0,1955,1955.0,47.554694,11.291366,"{'JRC': ['H1638'], 'OPSD': ['BNA1273'], 'CARMA': ['CARMA32079']}",2055,3323
1773,Niederwartha,hydro,Pumped Storage,Store,DE,39.8,15.804020100502514,1.981,143.0,1958,1958.0,51.09153428,13.60982895,"{'JRC': ['H986'], 'OPSD': ['BNA0721'], 'CARMA': ['CARMA31166']}",2058,4560
1777,Niederaichbach,hydro,Run-Of-River,Store,DE,16.2,0.0,0.0,0.0,1951,1951.0,48.6039132,12.3023425,"{'JRC': ['H1497'], 'OPSD': ['BNA1217'], 'CARMA': ['CARMA31141']}",2051,3319
1782,Neef,hydro,Run-Of-River,Store,DE,16.4,0.0,0.0,0.0,1966,1966.0,50.087362,7.135809,"{'JRC': ['H1493'], 'OPSD': ['BNA1216'], 'CARMA': ['CARMA30751']}",2066,4611
1814,Braunau simbach,hydro,Run-Of-River,Store,DE,50.0,0.0,0.0,0.0,1953,1953.0,48.063827,10.1284429999999,"{'JRC': ['H840'], 'OPSD': ['BNA0529'], 'CARMA': ['CARMA5647']}",2053,3494
1835,Dessau,hydro,Run-Of-River,Store,DE,10.3,0.0,0.0,0.0,1967,1967.0,47.739292,10.825702,"{'JRC': ['H1730'], 'OPSD': ['BNA1118'], 'CARMA': ['CARMA10630']}",2067,3323
1837,Ettling,hydro,Run-Of-River,Store,DE,12.6,0.0,0.0,0.0,1988,1988.0,48.6960722,12.7977619,"{'JRC': ['H1642'], 'OPSD': ['BNA1274'], 'CARMA': ['CARMA12857']}",2088,3324
1840,Faimingen,hydro,Run-Of-River,Store,DE,10.1,0.0,0.0,0.0,1965,1965.0,48.558394,10.411764,"{'JRC': ['H1733'], 'OPSD': ['BNA1189'], 'CARMA': ['CARMA13013']}",2065,3492
1841,Fankel,hydro,Run-Of-River,Store,DE,16.4,0.0,0.0,0.0,1963,1963.0,50.1239179999999,7.225915,"{'JRC': ['H1491'], 'OPSD': ['BNA1135'], 'CARMA': ['CARMA13125']}",2063,4611
1843,Feldkirchen,hydro,Run-Of-River,Store,DE,38.2,0.0,0.0,0.0,1970,1970.0,47.96092,12.1561,"{'JRC': ['H1004'], 'OPSD': ['BNA0854'], 'CARMA': ['CARMA13249']}",2070,3304
1858,Dettingen,hydro,Run-Of-River,Store,DE,11.0,0.0,0.0,0.0,1927,1927.0,48.527536,9.3488325,"{'JRC': ['H1706'], 'OPSD': ['BNA1126'], 'CARMA': ['CARMA10646']}",2027,3480
1860,Detzem,hydro,Run-Of-River,Store,DE,24.0,0.0,0.0,0.0,1962,1962.0,49.810941,6.8438820000000025,"{'JRC': ['H1285'], 'OPSD': ['BNA0880'], 'CARMA': ['CARMA10649']}",2062,4787
1864,Dingolfing,hydro,Run-Of-River,Store,DE,15.0,0.0,0.0,0.0,1957,1957.0,48.63404,12.48369,"{'JRC': ['H1544'], 'OPSD': ['BNA1129'], 'CARMA': ['CARMA10861']}",2057,3319
1868,Dornau,hydro,Run-Of-River,Store,DE,16.6,0.0,0.0,0.0,1960,1960.0,47.800199299999896,10.9026434,"{'JRC': ['H1485'], 'OPSD': ['BNA1251'], 'CARMA': ['CARMA11170']}",2060,3323
1869,Egglfing,hydro,Run-Of-River,Store,DE,124.4,0.0,0.0,0.0,1944,1944.0,48.3202287,13.31740725,"{'JRC': ['H412'], 'OPSD': ['BNA0042'], 'CARMA': ['CARMA11872']}",2044,3320
1871,Eitting,hydro,Run-Of-River,Store,DE,26.0,0.0,0.0,0.0,1925,1925.0,48.35859050000001,11.8821921,"{'JRC': ['H1219'], 'OPSD': ['BNA1134'], 'CARMA': ['CARMA11965', 'CARMA11966']}",2025,3315
1872,Ellgau,hydro,Run-Of-River,Store,DE,9.7,0.0,0.0,0.0,1952,1952.0,48.596746,10.8789,"{'JRC': ['H1775'], 'OPSD': ['BNA1136'], 'CARMA': ['CARMA12307']}",2052,3501
1877,Enkirch,hydro,Run-Of-River,Store,DE,18.4,0.0,0.0,0.0,1966,1966.0,49.97667,7.127777,"{'JRC': ['H1439'], 'OPSD': ['BNA1137'], 'CARMA': ['CARMA12501']}",2066,4611
1886,Lichterfelde,OCGT,OCGT,CHP,DE,144.0,0.0,0.0,0.0,1972,1998.0,52.42520804,13.30976486,"{'OPSD': ['BNA0075'], 'ENTSOE': ['11WD8LICH5G----1'], 'GEO': ['GEO44465']}",2038,4544
1887,Buschhaus,lignite,OCGT,PP,DE,352.0,0.0,0.0,0.0,1985,2002.0,52.17237156,10.97682873,"{'OPSD': ['BNA0439'], 'ENTSOE': ['11WD2BUSC0002637'], 'GEO': ['GEO43185']}",2047,4504
1904,Moorburg,coal,OCGT,CHP,DE,1600.0,0.0,0.0,0.0,2015,2015.0,53.486245,9.953149,"{'OPSD': ['BNA1673', 'BNA1558'], 'ENTSOE': ['11WD8MOOR1C----G'], 'GEO': ['GEO44482']}",2060,5677
1905,Niehl,CCGT,CCGT,CHP,DE,872.9,0.0,0.0,0.0,2005,2016.0,50.974908,6.987899499999998,"{'OPSD': ['BNA1818', 'BNA0545'], 'ENTSOE': ['11WD7BOLA--KWNIK'], 'GEO': ['GEO44317']}",2056,4650
1936,Bergheim,hydro,Run-Of-River,Store,DE,23.7,0.0,0.0,0.0,1970,1970.0,48.750807,11.273237,"{'JRC': ['H1304'], 'OPSD': ['BNA0065'], 'CARMA': ['CARMA4129']}",2070,3310
1937,Bertoldsheim,hydro,Run-Of-River,Store,DE,18.9,0.0,0.0,0.0,1968,1968.0,48.735932,11.020923,"{'JRC': ['H1433'], 'OPSD': ['BNA1239'], 'CARMA': ['CARMA4220']}",2068,3501
1940,Bigge,hydro,Run-Of-River,Store,DE,15.0,0.0,0.0,0.0,1965,1965.0,51.093173,7.8627199999999915,"{'JRC': ['H1543'], 'OPSD': ['BNA1102'], 'CARMA': ['CARMA4580']}",2065,4678
1944,Bittenbrunn,hydro,Run-Of-River,Store,DE,20.2,0.0,0.0,0.0,1969,1969.0,48.734459,11.14382,"{'JRC': ['H1375'], 'OPSD': ['BNA0689'], 'CARMA': ['CARMA4777']}",2069,3310
1946,Bleiloch,hydro,Pumped Storage,Store,DE,79.8,7.167919799498748,5.6,46.0,1932,1932.0,50.52438482,11.71438694,"{'JRC': ['H622'], 'OPSD': ['BNA0882'], 'CARMA': ['CARMA4904']}",2032,4515
1955,Radag,hydro,Run-Of-River,Store,DE,80.62,0.0,0.0,0.0,1934,1934.0,47.58629000000001,8.13207,"{'JRC': ['H612'], 'OPSD': ['BNA0010a'], 'CARMA': ['CARMA829']}",2034,3460
1958,Altheim,hydro,Run-Of-River,Store,DE,17.8,0.0,0.0,0.0,1951,1951.0,51.536513,14.382898,"{'JRC': ['H1464'], 'OPSD': ['BNA1140'], 'CARMA': ['CARMA1177']}",2051,4547
1959,Alzwerke,hydro,Run-Of-River,Store,DE,45.0,0.0,0.0,0.0,1922,1922.0,48.1769,12.84045,"{'JRC': ['H902'], 'OPSD': ['BNA0173'], 'CARMA': ['CARMA1254']}",2022,3320
1966,Aufkirchen,hydro,Run-Of-River,Store,DE,27.0,0.0,0.0,0.0,1924,1924.0,48.3066864,11.858847,"{'JRC': ['H1199'], 'OPSD': ['BNA1220'], 'CARMA': ['CARMA2524']}",2024,3315
2000,Höchstädt,hydro,Run-Of-River,Store,DE,10.0,0.0,0.0,0.0,1982,1982.0,48.603156,10.582724,"{'JRC': ['H1742'], 'OPSD': ['BNA1157'], 'CARMA': ['CARMA17997']}",2082,3492
2075,Fwk buer,coal,OCGT,PP,DE,70.0,0.0,0.0,0.0,1985,1985.0,51.596959999999996,7.004519999999999,"{'OPSD': ['BNA0336'], 'GPD': ['WRI1005685'], 'CARMA': ['CARMA6140']}",2030,4667
2087,Thermische abfallbehandlung lauta gmbh & co. ohg,waste,OCGT,PP,DE,15.7,0.0,0.0,0.0,2004,2004.0,51.45071,14.11215,"{'OPSD': ['BNA1190'], 'GPD': ['WRI1030148'], 'CARMA': ['CARMA24652']}",2029,4507
2107,Pforzheim gmbh,coal,OCGT,CHP,DE,26.9,0.0,0.0,0.0,1990,1990.0,48.88316,8.6653,"{'OPSD': ['BNA0801'], 'GPD': ['WRI1005757'], 'CARMA': ['CARMA34411']}",2035,3471
2125,Gummering,hydro,Run-Of-River,Store,DE,14.8,0.0,0.0,0.0,1957,1957.0,48.622456,12.398037,"{'JRC': ['H1567'], 'OPSD': ['BNA1219'], 'CARMA': ['CARMA16292']}",2057,3319
2127,Happurg,hydro,Pumped Storage,Store,DE,160.0,0.0,0.0,0.0,1958,1958.0,49.48711,11.47441,"{'JRC': ['H306'], 'OPSD': ['BNA0422'], 'CARMA': ['CARMA16848']}",2058,4500
2131,Heimbach,hydro,Run-Of-River,Store,DE,16.0,0.0,0.0,0.0,1905,1905.0,50.628568,6.4517760000000015,"{'JRC': ['H1506'], 'OPSD': ['BNA1153'], 'CARMA': ['CARMA17341', 'CARMA17344']}",2005,4627
2132,Hemfurth,hydro,Reservoir,Store,DE,20.0,0.0,199.3,45.0,1915,1915.0,51.167139,9.046832,"{'JRC': ['H1385'], 'OPSD': ['BNA0230'], 'CARMA': ['CARMA17439']}",2015,4738
2133,Pumpspeicherkraftwerk glems,hydro,Pumped Storage,Store,DE,90.0,6.288888888888889,0.9,283.0,1964,1964.0,48.50499,9.28692,"{'JRC': ['H557'], 'OPSD': ['BNA0669'], 'CARMA': ['CARMA15244']}",2064,3481
2148,Gars,hydro,Run-Of-River,Store,DE,25.0,0.0,0.0,0.0,1938,1938.0,48.15395,12.3110699999999,"{'JRC': ['H1251'], 'OPSD': ['BNA0324'], 'CARMA': ['CARMA14683']}",2038,3318
2150,Geisling,hydro,Run-Of-River,Store,DE,25.0,0.0,0.0,0.0,1985,1985.0,48.974806,12.344002,"{'JRC': ['H1252'], 'OPSD': ['BNA0795'], 'CARMA': ['CARMA14827', 'CARMA14830']}",2085,3317
2168,Riedlingen,hydro,Run-Of-River,Store,DE,0.132,0.0,0.0,0.0,1957,1957.0,48.153712,9.477003,"{'JRC': ['H2918'], 'CARMA': ['CARMA37297']}",2057,3477
2169,Riedmühle reichensachsen,hydro,Run-Of-River,Store,DE,0.099,0.0,0.0,0.0,1957,1957.0,51.157262,9.992856,"{'JRC': ['H2984'], 'CARMA': ['CARMA37298']}",2057,4762
2180,Rasenmühle,hydro,Run-Of-River,Store,DE,0.5,0.0,0.0,0.0,1957,1957.0,50.83600000000001,10.163,"{'JRC': ['H2639'], 'CARMA': ['CARMA36697']}",2057,4764
2184,Talsperre pirk,hydro,Run-Of-River,Store,DE,0.413,0.0,0.0,0.0,1957,1957.0,50.42749600000001,12.116948,"{'JRC': ['H2682'], 'CARMA': ['CARMA34767']}",2057,4522
2201,Schwabmünchen,hydro,Run-Of-River,Store,DE,2.6,0.0,0.0,0.0,1957,1957.0,48.191,10.729,"{'JRC': ['H2521'], 'CARMA': ['CARMA40211']}",2057,3499
2202,Neumurnthal,hydro,Run-Of-River,Store,DE,0.145,0.0,0.0,0.0,1957,1957.0,49.37066,12.40655,"{'JRC': ['H2900'], 'CARMA': ['CARMA40230']}",2057,4511
2203,Schwarzenbach,hydro,Pumped Storage,Store,DE,44.0,0.0,14.288,65.0,1957,1957.0,48.655930799999894,8.3262275,"{'JRC': ['H917'], 'CARMA': ['CARMA40235']}",2057,3464
2207,Senkelbach,hydro,Run-Of-River,Store,DE,0.24,0.0,0.0,0.0,1957,1957.0,48.380796,10.890366,"{'JRC': ['H2807'], 'CARMA': ['CARMA40559']}",2057,3498
2210,Siesel,hydro,Run-Of-River,Store,DE,5.4,0.0,0.0,0.0,1957,1957.0,51.22470666666666,7.902080333333334,"{'JRC': ['H2615', 'H2618', 'H2613', 'H2619', 'H2616', 'H2617', 'H2614', 'H2612', 'H2611'], 'CARMA': ['CARMA41553']}",2057,4678
2215,Schönheiderhammer,hydro,Run-Of-River,Store,DE,0.18,0.0,0.0,0.0,1957,1957.0,50.502485,12.55281,"{'JRC': ['H2852'], 'CARMA': ['CARMA40167']}",2057,4522
2216,Schlossmühle,hydro,Run-Of-River,Store,DE,0.09,0.0,0.0,0.0,1957,1957.0,48.760848,8.338525,"{'JRC': ['H3007'], 'CARMA': ['CARMA40121', 'CARMA40124']}",2057,3464
2233,Am rotbach posthalde,hydro,Run-Of-River,Store,DE,0.82,0.0,0.0,0.0,1957,1957.0,47.931916,8.031358,"{'JRC': ['H2568'], 'CARMA': ['CARMA34410']}",2057,3458
2238,Rentschler,hydro,Run-Of-River,Store,DE,0.08,0.0,0.0,0.0,1957,1957.0,48.549668,8.716258,"{'JRC': ['H3047'], 'CARMA': ['CARMA30187']}",2057,3472
2245,Neumühle,hydro,Run-Of-River,Store,DE,0.075,0.0,0.0,0.0,1957,1957.0,47.753204,11.742502,"{'JRC': ['H3088'], 'CARMA': ['CARMA30906']}",2057,3304
2254,Forb murgwerk,hydro,Run-Of-River,Store,DE,22.0,0.0,0.0,0.0,1957,1957.0,48.66953,8.353117,"{'JRC': ['H2493'], 'CARMA': ['CARMA29939']}",2057,3464
2255,Mögling,hydro,Run-Of-River,Store,DE,0.215,0.0,0.0,0.0,1957,1957.0,39.655637,21.101631,"{'JRC': ['H2827'], 'CARMA': ['CARMA28929']}",2057,3320
2257,Mittelstetten,hydro,Run-Of-River,Store,DE,2.4,0.0,0.0,0.0,1957,1957.0,49.21,10.72,"{'JRC': ['H2524'], 'CARMA': ['CARMA28760']}",2057,4760
2258,Mittweida,hydro,Run-Of-River,Store,DE,1.785,0.0,0.0,0.0,1957,1957.0,50.9860815,13.000093,"{'JRC': ['H2628', 'H2543'], 'CARMA': ['CARMA28770']}",2057,4562
2262,Möhnebogen an der möhne,hydro,Run-Of-River,Store,DE,0.16,0.0,0.0,0.0,1957,1957.0,51.462224,7.976858999999997,"{'JRC': ['H2868'], 'CARMA': ['CARMA28943', 'CARMA28944']}",2057,4692
2273,Oberegg,hydro,Run-Of-River,Store,DE,1.1,0.0,0.0,0.0,1957,1957.0,48.28,10.31,"{'JRC': ['H2550'], 'CARMA': ['CARMA32057']}",2057,3493
2292,Okertal lumme,hydro,Run-Of-River,Store,DE,4.515,0.0,0.0,0.0,1957,1957.0,51.872975,10.472331,"{'JRC': ['H3017', 'H2773', 'H2516'], 'CARMA': ['CARMA32361']}",2057,4774
2293,Oberbiel,hydro,Run-Of-River,Store,DE,0.511,0.0,0.0,0.0,1957,1957.0,50.325259,8.253758,"{'JRC': ['H2634'], 'CARMA': ['CARMA32099']}",2057,4621
2294,Obere hopfau,hydro,Run-Of-River,Store,DE,0.0375,0.0,0.0,0.0,1957,1957.0,49.862239,12.00937,"{'JRC': ['H3234'], 'CARMA': ['CARMA49978']}",2057,4510
2295,Odertalsperre,hydro,Run-Of-River,Store,DE,4.86,0.0,0.0,0.0,1957,1957.0,51.646122,10.504712,"{'JRC': ['H2502'], 'CARMA': ['CARMA32185']}",2057,4767
2302,Olef,hydro,Run-Of-River,Store,DE,1.45,0.0,0.0,0.0,1957,1957.0,50.49482800000001,6.422579,"{'JRC': ['H2534'], 'CARMA': ['CARMA32446']}",2057,4604
2338,Untermaubach,hydro,Run-Of-River,Store,DE,0.225,0.0,0.0,0.0,1957,1957.0,50.72618,6.457026,"{'JRC': ['H2816'], 'CARMA': ['CARMA47166']}",2057,4627
2339,Oberried unteres,hydro,Run-Of-River,Store,DE,0.8,0.0,0.0,0.0,1957,1957.0,47.922189,7.937788,"{'JRC': ['H2570'], 'CARMA': ['CARMA47168']}",2057,3454
2340,Unterwerk,hydro,Run-Of-River,Store,DE,0.14800000000000002,0.0,0.0,0.0,1957,1957.0,47.873062,12.644255,"{'JRC': ['H2898'], 'CARMA': ['CARMA47175']}",2057,3318
2349,Weitenbühl,hydro,Run-Of-River,Store,DE,0.084,0.0,0.0,0.0,1957,1957.0,48.8,9.59,"{'JRC': ['H3033'], 'CARMA': ['CARMA49188']}",2057,3486
2350,Der spinnerei unterboihingen,hydro,Run-Of-River,Store,DE,0.6,0.0,0.0,0.0,1957,1957.0,48.6631,9.3638,"{'JRC': ['H2605'], 'CARMA': ['CARMA49227']}",2057,3503
2351,Leinemühle,hydro,Run-Of-River,Store,DE,0.1,0.0,0.0,0.0,1957,1957.0,51.459603,9.930895,"{'JRC': ['H2977'], 'CARMA': ['CARMA49231']}",2057,4762
2352,Werker,hydro,Run-Of-River,Store,DE,0.66,0.0,0.0,0.0,1957,1957.0,49.610772,10.998282,"{'JRC': ['H2582'], 'CARMA': ['CARMA49264']}",2057,4765
2353,Wieblingen helmreich,hydro,Run-Of-River,Store,DE,0.3,0.0,0.0,0.0,1957,1957.0,49.426813,8.651185,"{'JRC': ['H2748'], 'CARMA': ['CARMA49635']}",2057,4723
2354,Wiehlmünden,hydro,Run-Of-River,Store,DE,0.4,0.0,0.0,0.0,1957,1957.0,50.98822,7.480166,"{'JRC': ['H2684'], 'CARMA': ['CARMA49638']}",2057,4682
2355,Wiemeringhausen,hydro,Run-Of-River,Store,DE,0.35200000000000004,0.0,0.0,0.0,1957,1957.0,51.2896,8.504373,"{'JRC': ['H2712'], 'CARMA': ['CARMA49643']}",2057,4728
2357,Wut,hydro,Run-Of-River,Store,DE,0.97,0.0,0.0,0.0,1957,1957.0,47.65980500000001,8.361114,"{'JRC': ['H2656', 'H2655'], 'CARMA': ['CARMA50219']}",2057,3460
2364,Weißachwerk,hydro,Run-Of-River,Store,DE,0.18,0.0,0.0,0.0,1957,1957.0,47.681354,11.762617,"{'JRC': ['H2853'], 'CARMA': ['CARMA49175', 'CARMA49177']}",2057,3304
2365,Wattenweiler,hydro,Run-Of-River,Store,DE,0.55,0.0,0.0,0.0,1957,1957.0,48.31,10.33,"{'JRC': ['H2631'], 'CARMA': ['CARMA49059']}",2057,3493
2366,Waldstetten,hydro,Run-Of-River,Store,DE,0.35,0.0,0.0,0.0,1957,1957.0,48.347953,10.307713,"{'JRC': ['H2728'], 'CARMA': ['CARMA48795']}",2057,3493
2368,Villigst,hydro,Run-Of-River,Store,DE,1.504,0.0,0.0,0.0,1957,1957.0,51.458439,7.633934,"{'JRC': ['H2555', 'H2636'], 'CARMA': ['CARMA48303']}",2057,4688
2375,Papierfabrik wolkenburg,hydro,Run-Of-River,Store,DE,0.505,0.0,0.0,0.0,1957,1957.0,50.898857,12.660523,"{'JRC': ['H2635'], 'CARMA': ['CARMA48782']}",2057,4520
2387,Sorpesee,hydro,Pumped Storage,Store,DE,7.42,0.0,0.0,0.0,1957,1957.0,51.3510404,7.9680569,"{'JRC': ['H1869'], 'CARMA': ['CARMA42430']}",2057,4688
2393,Steinen,hydro,Run-Of-River,Store,DE,1.0,0.0,0.0,0.0,1957,1957.0,47.644532,7.753286,"{'JRC': ['H2558'], 'CARMA': ['CARMA43167', 'CARMA43169']}",2057,3458
2450,Tanzmühle,hydro,Pumped Storage,Store,DE,35.0,0.0,0.0,0.0,1957,1957.0,49.552216,12.281256,"{'JRC': ['H1065'], 'CARMA': ['CARMA44564']}",2057,4510
2455,Tauberbischofsheim dittigheim,hydro,Run-Of-River,Store,DE,0.19,0.0,0.0,0.0,1957,1957.0,49.6082415,9.677711,"{'JRC': ['H3008', 'H2978'], 'CARMA': ['CARMA44725']}",2057,4735
2520,Biblis,nuclear,,PP,DE,2401.138220214174,0.0,0.0,0.0,1986,1986.0,49.71088,8.41475,"{'GEO': ['GEO2336'], 'CARMA': ['CARMA4491']}",2036,4722
2531,Datteln,coal,OCGT,CHP,DE,279.3634697280458,0.0,0.0,0.0,1983,1983.0,51.6295,7.3313,"{'GEO': ['GEO44321'], 'CARMA': ['CARMA10290']}",2028,4646
2546,Freimann,OCGT,OCGT,CHP,DE,146.64970360771053,0.0,0.0,0.0,1994,1994.0,48.1889,11.5957,"{'GEO': ['GEO44309'], 'CARMA': ['CARMA14083']}",2034,3314
2711,Veltheim,coal,OCGT,PP,DE,295.03732776559286,0.0,0.0,0.0,1983,1983.0,52.1898,8.9335,"{'GEO': ['GEO44479'], 'CARMA': ['CARMA47920']}",2028,4755
2762,Unterweser,nuclear,,PP,DE,1340.833620000786,0.0,0.0,0.0,1986,1986.0,53.4292,8.4775,"{'GEO': ['GEO5873'], 'CARMA': ['CARMA47176']}",2036,5661
2784,Reuter,coal,,PP,DE,160.0,0.0,0.0,0.0,1983,1983.0,51.215069899999996,6.7555926999999985,"{'ENTSOE': ['11WD8REUT5X----M'], 'CARMA': ['CARMA37137']}",2028,4633
2811,Ensdorf,coal,,PP,DE,389.0,0.0,0.0,0.0,1983,1983.0,49.3006624,6.7773009,"{'ENTSOE': ['11WD7ENSD5SKW3-E', '11WD7ENSD2SKW1-4'], 'CARMA': ['CARMA12524']}",2028,4598
2816,Kraftwerk flingern,waste,,PP,DE,189.1,0.0,0.0,0.0,1994,1994.0,51.2184154,6.813221299999999,"{'ENTSOE': ['11WD7ELLE5X--KWV'], 'CARMA': ['CARMA13579']}",2019,4654
2818,Hagen kabel,OCGT,,PP,DE,250.0,0.0,0.0,0.0,1994,1994.0,51.4065932,7.4911898999999975,"{'ENTSOE': ['11WD7GARE5XHAKW5'], 'CARMA': ['CARMA16482']}",2034,4686
2821,Herrenhausen kwh,OCGT,,PP,DE,100.0,0.0,0.0,0.0,1994,1994.0,52.415408899999996,9.6521261,"{'ENTSOE': ['11WD2HERR5GKW--1'], 'CARMA': ['CARMA17565']}",2034,4768
2833,Shamrock,coal,OCGT,PP,DE,110.63899791209735,0.0,0.0,0.0,1983,1983.0,51.5283,7.1789999999999985,"{'GEO': ['GEO45029'], 'CARMA': ['CARMA40840']}",2028,4676
2870,Grafenrheinfeld,nuclear,,PP,DE,1279.0221410645795,0.0,0.0,0.0,1986,1986.0,49.9844,10.1828,"{'GEO': ['GEO3362'], 'CARMA': ['CARMA15640']}",2036,4777
2889,Kruemmel,nuclear,,PP,DE,1251.4447120007335,0.0,0.0,0.0,1986,1986.0,53.410286514073,10.410154529114,"{'GEO': ['GEO3909'], 'CARMA': ['CARMA23157']}",2036,5685
3270,Mihla,hydro,Run-Of-River,Store,DE,0.88,0.0,0.0,0.0,1957,1957.0,51.078326,10.328892,"{'JRC': ['H2567'], 'CARMA': ['CARMA28406']}",2057,4764
3441,Chemiepark marl,coal,,PP,DE,136.0,0.0,0.0,0.0,1974,1974.0,51.6846,7.1,"{'GPD': ['WRI1075564'], 'CARMA': ['CARMA49258', 'CARMA27298']}",2019,4674
3483,Eltmann,OCGT,OCGT,CHP,DE,57.0,0.0,0.0,0.0,2007,2007.0,49.983999999999995,10.65137,"{'OPSD': ['BNA0243'], 'CARMA': ['CARMA12362']}",2047,4757
3487,Emden,OCGT,OCGT,PP,DE,52.0,0.0,0.0,0.0,1973,1973.0,53.342169999999996,7.2062399999999975,"{'OPSD': ['BNA0245a'], 'CARMA': ['CARMA12389']}",2013,5651
3494,Iderhoffstraße,OCGT,OCGT,CHP,DE,11.0,0.0,0.0,0.0,1996,1996.0,50.978567,11.05158,"{'OPSD': ['BNA0255'], 'CARMA': ['CARMA12608']}",2036,4517
3495,Erfurt ost,CCGT,CCGT,CHP,DE,109.1,0.0,0.0,0.0,1999,2014.0,50.989612,11.027635,"{'OPSD': ['BNA0256b', 'BNA0256a'], 'CARMA': ['CARMA12609']}",2054,4517
3497,Ering,hydro,Run-Of-River,PP,DE,36.5,0.0,0.0,0.0,1942,1942.0,48.293512899999996,13.1585196,"{'OPSD': ['BNA0259'], 'CARMA': ['CARMA12629']}",2042,3320
3498,Erlangen,coal,OCGT,CHP,DE,17.4,0.0,0.0,0.0,1982,1982.0,49.59283,11.00148,"{'OPSD': ['BNA0261b'], 'CARMA': ['CARMA12638']}",2027,4765
3503,Kwk dingolfing ba,OCGT,OCGT,PP,DE,16.0,0.0,0.0,0.0,2017,2017.0,48.6333333,12.5,"{'OPSD': ['BNA1873'], 'CARMA': ['CARMA10862']}",2057,3319
3509,Dortmund,OCGT,OCGT,PP,DE,26.0,0.0,0.0,0.0,2004,2004.0,51.519729999999996,7.47697,"{'OPSD': ['BNA0202'], 'CARMA': ['CARMA10467']}",2044,4691
3517,Mt düren,OCGT,OCGT,PP,DE,14.0,0.0,0.0,0.0,1940,1940.0,50.77284,6.49003,"{'OPSD': ['BNA1131'], 'CARMA': ['CARMA11510']}",1980,4627
3522,Werkskraftwerk sappi ehingen,biomass,OCGT,PP,DE,21.2,0.0,0.0,0.0,1961,1990.0,48.266954999999996,9.726205,"{'OPSD': ['BNA0232b', 'BNA0232a'], 'CARMA': ['CARMA11901']}",2010,3476
3527,Heizkraftwerke an der friedensbrücke,CCGT,CCGT,CHP,DE,122.0,0.0,0.0,0.0,1971,2009.0,49.800041,9.923136,"{'OPSD': ['BNA1086', 'BNA1088', 'BNA1087', 'BNA1085'], 'CARMA': ['CARMA14130']}",2049,4758
3530,Fulda,oil,OCGT,PP,DE,24.8,0.0,0.0,0.0,2011,2011.0,50.566359999999996,9.68614,"{'OPSD': ['BNA0318'], 'CARMA': ['CARMA14305']}",2051,4715
3533,Stuttgart gaisburg,OCGT,OCGT,CHP,DE,29.2,0.0,0.0,0.0,2018,2018.0,48.7823242931971,9.17701721191406,"{'OPSD': ['BNA1909'], 'CARMA': ['CARMA14456']}",2058,3507
3541,Industriepark werk gendorf,OCGT,OCGT,PP,DE,73.1,0.0,0.0,0.0,2002,2002.0,48.176790000000004,12.73056,"{'OPSD': ['BNA0174'], 'CARMA': ['CARMA14877']}",2042,3318
3542,Gera nord,OCGT,OCGT,CHP,DE,74.0,0.0,0.0,0.0,1996,1996.0,50.9076,12.06102,"{'OPSD': ['BNA0343'], 'CARMA': ['CARMA58847']}",2036,4513
3545,Anlage wvk,CCGT,CCGT,PP,DE,40.0,0.0,0.0,0.0,1998,1998.0,48.020738,7.84588,"{'OPSD': ['BNA0293'], 'CARMA': ['CARMA14077']}",2038,3454
3559,Fl,coal,CCGT,CHP,DE,97.0,0.0,0.0,0.0,1985,1992.0,54.80495,9.43244,"{'OPSD': ['BNA0270', 'BNA0271', 'BNA0272'], 'CARMA': ['CARMA13570']}",2037,5696
3561,Bmkw flörsheim wicker,biomass,OCGT,PP,DE,12.6,0.0,0.0,0.0,2003,2003.0,50.022602,8.377208999999999,"{'OPSD': ['BNA0277'], 'CARMA': ['CARMA13617']}",2023,4618
3569,Deuben,lignite,OCGT,PP,DE,67.0,0.0,0.0,0.0,1936,1936.0,51.11187,12.07617,"{'OPSD': ['BNA0196'], 'CARMA': ['CARMA10651']}",1981,4513
3615,Dessau,lignite,OCGT,PP,DE,49.0,0.0,0.0,0.0,1996,1996.0,51.82685,12.230030000000001,"{'OPSD': ['BNA0194'], 'CARMA': ['CARMA10629']}",2041,4529
3626,Cottbus,lignite,OCGT,CHP,DE,74.0,0.0,0.0,0.0,1999,1999.0,51.76017,14.37004,"{'OPSD': ['BNA0183'], 'CARMA': ['CARMA9525']}",2044,4540
3636,Gtkw darmstadt,OCGT,OCGT,PP,DE,94.6,0.0,0.0,0.0,2013,2013.0,49.884879,8.650067,"{'OPSD': ['BNA1487'], 'CARMA': ['CARMA4389', 'CARMA10243', 'CARMA10245']}",2053,4717
3644,Chemnitz nord,lignite,OCGT,CHP,DE,147.6,0.0,0.0,0.0,1988,2010.0,50.856981,12.923096000000001,"{'OPSD': ['BNA0179', 'BNA0177'], 'CARMA': ['CARMA8136']}",2055,4526
3661,Kwkk heidelberg,OCGT,OCGT,PP,DE,13.5,0.0,0.0,0.0,2001,2001.0,49.42158,8.672839999999999,"{'OPSD': ['BNA1151'], 'CARMA': ['CARMA47064']}",2041,4723
3665,Bmkw königs wusterhausen,biomass,OCGT,PP,DE,17.1,0.0,0.0,0.0,2003,2003.0,52.304790000000004,13.636029999999998,"{'OPSD': ['BNA0549'], 'CARMA': ['CARMA22771']}",2023,4552
3670,Krefeld,OCGT,OCGT,CHP,DE,12.6,0.0,0.0,0.0,2011,2011.0,51.3387609,6.5853417,"{'OPSD': ['BNA1502'], 'CARMA': ['CARMA23065']}",2051,4638
3671,K&n pfk ag ev,CCGT,CCGT,PP,DE,13.11,0.0,0.0,0.0,1993,1993.0,51.05135,13.01661,"{'OPSD': ['BNA1329'], 'CARMA': ['CARMA23092']}",2033,4562
3681,Bioenergie park klarsee,biomass,OCGT,PP,DE,17.8,0.0,0.0,0.0,2006,2006.0,53.320352,14.271028,"{'OPSD': ['BNA1522'], 'CARMA': ['CARMA22419']}",2026,5540
3686,Karcherstr.,coal,OCGT,CHP,DE,13.4,0.0,0.0,0.0,1996,1996.0,49.43461,7.75824,"{'OPSD': ['BNA0510b'], 'CARMA': ['CARMA21290']}",2041,4605
3701,Kirchlengern,CCGT,CCGT,PP,DE,146.5,0.0,0.0,0.0,1981,1981.0,52.19507,8.6482,"{'OPSD': ['BNA0531'], 'CARMA': ['CARMA22270']}",2021,4751
3702,Kirchmöser,CCGT,CCGT,PP,DE,160.0,0.0,0.0,0.0,1994,1994.0,52.394166999999996,12.418056,"{'OPSD': ['BNA0130'], 'CARMA': ['CARMA22273']}",2034,4533
3704,Anlage drewsen,CCGT,CCGT,PP,DE,13.0,0.0,0.0,0.0,2000,2000.0,52.623451,10.245655000000001,"{'OPSD': ['BNA1450'], 'CARMA': ['CARMA23994']}",2040,4771
3718,Mitte,OCGT,OCGT,CHP,DE,11.3,0.0,0.0,0.0,1980,1980.0,52.029657,8.907163,"{'OPSD': ['BNA1658'], 'CARMA': ['CARMA26209']}",2020,4752
3719,Großbatteriesystem gbs lünen,storage technologies,Storage Technologies,Store,DE,15.0,0.0,0.0,0.0,2016,2016.0,51.613159,7.50983,"{'OPSD': ['BNA1811'], 'CARMA': ['CARMA26212']}",2056,4691
3730,Landesbergen biomasse,biomass,OCGT,PP,DE,22.0,0.0,0.0,0.0,2005,2005.0,52.57703000000001,9.11009,"{'OPSD': ['BNA0573'], 'CARMA': ['CARMA24347']}",2025,5663
3731,Schwerin lankow,OCGT,OCGT,CHP,DE,23.0,0.0,0.0,0.0,1994,1994.0,53.65391700000001,11.372972,"{'OPSD': ['BNA0897'], 'CARMA': ['CARMA24444']}",2034,5534
3737,Dkw leinau,oil,OCGT,PP,DE,11.4,0.0,0.0,0.0,1978,1978.0,47.912537,10.61174,"{'OPSD': ['BNA1227'], 'CARMA': ['CARMA24878']}",2018,3490
3742,Leuna,CCGT,CCGT,CHP,DE,39.0,0.0,0.0,0.0,1998,1998.0,51.29976,12.0193,"{'OPSD': ['BNA0592'], 'CARMA': ['CARMA58259']}",2038,4561
3752,Kwk gütersloh,biomass,OCGT,PP,DE,12.1,0.0,0.0,0.0,2000,2000.0,51.91537,8.400310000000001,"{'OPSD': ['BNA0385'], 'CARMA': ['CARMA16368']}",2020,4746
3754,Hafen,CCGT,CCGT,CHP,DE,104.1,0.0,0.0,0.0,2005,2005.0,51.950086,7.641275999999999,"{'OPSD': ['BNA0685'], 'CARMA': ['CARMA16475']}",2045,4698
3757,Halle trotha,CCGT,CCGT,CHP,DE,153.1,0.0,0.0,0.0,2005,2013.0,51.502245,11.95382,"{'OPSD': ['BNA0392a', 'BNA0392b'], 'CARMA': ['CARMA16608']}",2053,4561
3763,Hausham,oil,OCGT,PP,DE,92.8,0.0,0.0,0.0,1982,1982.0,47.75239600000001,11.839802,"{'OPSD': ['BNA0427', 'BNA0428', 'BNA0430', 'BNA0429'], 'CARMA': ['CARMA17145']}",2022,3304
3765,Ihkw heidenheim,OCGT,OCGT,CHP,DE,18.9,0.0,0.0,0.0,2014,2014.0,48.670061,10.150584,"{'OPSD': ['BNA1292b'], 'CARMA': ['CARMA17326']}",2054,3497
3766,Helmshäger berg,OCGT,OCGT,CHP,DE,14.7,0.0,0.0,0.0,1996,1996.0,54.07039,13.39886,"{'OPSD': ['BNA0360'], 'CARMA': ['CARMA17415']}",2036,5551
3767,Bio herbrechtingen,biomass,OCGT,CHP,DE,14.0,0.0,0.0,0.0,2004,2004.0,48.628498,10.200853,"{'OPSD': ['BNA1501'], 'CARMA': ['CARMA17522']}",2024,3497
3780,Göttingen,OCGT,OCGT,CHP,DE,18.8,0.0,0.0,0.0,1998,1998.0,51.55337,9.93374,"{'OPSD': ['BNA0354'], 'CARMA': ['CARMA17945']}",2038,4762
3784,Grenzach wyhlen,OCGT,OCGT,PP,DE,30.0,0.0,0.0,0.0,2017,2017.0,47.53971,7.706923,"{'OPSD': ['BNA0361'], 'CARMA': ['CARMA15898']}",2057,3458
3793,Hiltrop,OCGT,OCGT,CHP,DE,44.0,0.0,0.0,0.0,2013,2013.0,51.50795,7.25029,"{'OPSD': ['BNA0111'], 'CARMA': ['CARMA17787']}",2053,4676
3800,Jena,CCGT,CCGT,CHP,DE,182.0,0.0,0.0,0.0,1996,1996.0,50.896881,11.585703,"{'OPSD': ['BNA0504'], 'CARMA': ['CARMA20218']}",2036,4519
3828,Humboldtstr.,OCGT,OCGT,CHP,DE,21.5,0.0,0.0,0.0,2005,2005.0,54.327536,10.12674,"{'OPSD': ['BNA0527'], 'CARMA': ['CARMA18821']}",2045,5684
3839,Itzehoe,oil,OCGT,PP,DE,88.0,0.0,0.0,0.0,1972,1972.0,53.966421999999994,9.449486,"{'OPSD': ['BNA0759'], 'CARMA': ['CARMA19785']}",2012,5668
3867,Roßhaupten,hydro,Reservoir,Store,DE,45.5,0.0,168.0,35.4,1954,1954.0,47.651451,10.735525,"{'JRC': ['H897'], 'OPSD': ['BNA0847']}",2054,3490
3871,Nußdorf,hydro,Run-Of-River,Store,DE,36.6,0.0,0.0,0.0,1982,1982.0,47.74473,12.13573,"{'JRC': ['H1040'], 'OPSD': ['BNA0747']}",2082,3304
3883,Reckingen,hydro,Run-Of-River,Store,DE,19.0,0.0,0.0,0.0,1942,1942.0,47.57122,8.338716,"{'JRC': ['H2494'], 'OPSD': ['BNA0825']}",2042,3460
3908,Ebkw knapsack,waste,OCGT,PP,DE,33.4,0.0,0.0,0.0,2009,2009.0,50.8577189,6.850175,"{'OPSD': ['BNA1490'], 'GEO': ['GEO45682']}",2034,4652
3913,Müllheizkraftwerk,waste,OCGT,CHP,DE,30.0,0.0,0.0,0.0,1976,1976.0,51.22515,7.1422300000000005,"{'OPSD': ['BNA1316'], 'GEO': ['GEO45683']}",2001,4648
3923,Upm schongau,hydro,Run-Of-River,Store,DE,10.5,0.0,0.0,0.0,1959,1959.0,47.803187,10.904254,"{'JRC': ['H1728'], 'OPSD': ['BNA1250']}",2059,3323
3929,Weserkraftwerk bremen turbine,hydro,Run-Of-River,Store,DE,29.9,0.0,0.0,0.0,2011,2011.0,53.06131280000001,8.864118600000003,"{'JRC': ['H1773', 'H2500', 'H2498', 'H2499', 'H2501'], 'OPSD': ['BNA1098']}",2111,5662
4022,Haeusern,hydro,Pumped Storage,Store,DE,120.0,0.0,0.0,0.0,1931,1948.0,47.755001,8.187999999999999,"{'JRC': ['H430'], 'OPSD': ['BNA0426']}",2048,3458
4034,Kraftwerksgruppe pfreimd,hydro,Run-Of-River,Store,DE,130.3,0.0,0.0,0.0,1952,1958.0,49.54484666666666,12.28245,"{'JRC': ['H532', 'H2098', 'H1178'], 'OPSD': ['BNA0946a', 'BNA0946b', 'BNA0953', 'BNA0946c']}",2058,4510
4041,Barmen,CCGT,CCGT,CHP,DE,82.0,0.0,0.0,0.0,2005,2005.0,51.268889,7.200278,"{'OPSD': ['BNA1082'], 'CARMA': ['CARMA3355']}",2045,4670
4047,Bhw beeskow,biomass,OCGT,PP,DE,18.3,0.0,0.0,0.0,2001,2001.0,52.18269,14.258410000000001,"{'OPSD': ['BNA0062'], 'CARMA': ['CARMA61370']}",2021,4550
4054,Bmkw bergkamen,biomass,OCGT,PP,DE,17.7,0.0,0.0,0.0,2005,2005.0,51.63701,7.618760000000001,"{'OPSD': ['BNA0066'], 'CARMA': ['CARMA4134']}",2025,4691
4056,Industriekraftwerk bernburg ikb,CCGT,CCGT,PP,DE,140.5,0.0,0.0,0.0,1994,1994.0,51.802609000000004,11.751511,"{'OPSD': ['BNA0088a'], 'CARMA': ['CARMA4185']}",2034,4503
4061,Kwk anlage barby,OCGT,OCGT,PP,DE,17.8,0.0,0.0,0.0,1994,1994.0,51.983191999999995,11.876560000000001,"{'OPSD': ['BNA0051'], 'CARMA': ['CARMA26572']}",2034,4531
4065,Audorf,oil,OCGT,PP,DE,87.0,0.0,0.0,0.0,1973,1973.0,54.290672,9.722775,"{'OPSD': ['BNA0766'], 'CARMA': ['CARMA2514']}",2013,5678
4082,Biomassekraftwerk bischofferode,biomass,OCGT,PP,DE,18.1,0.0,0.0,0.0,2005,2005.0,51.48993,10.41307,"{'OPSD': ['BNA0103'], 'CARMA': ['CARMA4735']}",2025,4764
4084,Bhkw braunschweig,OCGT,OCGT,CHP,DE,10.4,0.0,0.0,0.0,2014,2014.0,52.295297999999995,10.521672,"{'OPSD': ['BNA1677'], 'CARMA': ['CARMA5651', 'CARMA5649']}",2054,4775
4085,Mitte,coal,CCGT,CHP,DE,43.3,0.0,0.0,0.0,1984,1984.0,52.278611,10.514722,"{'OPSD': ['BNA0138'], 'CARMA': ['CARMA5650']}",2029,4775
4086,Industriekraftwerk breuberg,OCGT,OCGT,PP,DE,11.4,0.0,0.0,0.0,1999,1999.0,49.81082,9.01169,"{'OPSD': ['BNA1117'], 'CARMA': ['CARMA59827']}",2039,4855
4087,Egger brilon,OCGT,OCGT,PP,DE,13.5,0.0,0.0,0.0,1996,1996.0,51.40845951,8.599935409,"{'OPSD': ['BNA0156b'], 'CARMA': ['CARMA5803']}",2036,4731
4103,Bitterfeld,CCGT,CCGT,PP,DE,106.0,0.0,0.0,0.0,2000,2000.0,51.633860999999996,12.299357,"{'OPSD': ['BNA0105'], 'CARMA': ['CARMA4778']}",2040,4529
4108,Bmk lünen,biomass,OCGT,PP,DE,20.0,0.0,0.0,0.0,2006,2006.0,51.61403992,7.481253973999999,"{'OPSD': ['BNA0617'], 'CARMA': ['CARMA4994']}",2026,4691
4109,Bmhkw re recklinghausen,biomass,OCGT,CHP,DE,15.0,0.0,0.0,0.0,2004,2004.0,51.604008,7.250847999999999,"{'OPSD': ['BNA0826'], 'CARMA': ['CARMA63163']}",2024,4676
4110,Bmkw mannheim,biomass,OCGT,PP,DE,17.9,0.0,0.0,0.0,2003,2003.0,49.51644467,8.460246482,"{'OPSD': ['BNA0636'], 'CARMA': ['CARMA63085', 'CARMA63084']}",2023,4722
4111,Restmüllheizkraftwerk böblingen,waste,OCGT,CHP,DE,9.5,0.0,0.0,0.0,1999,1999.0,48.68552315,9.049525695,"{'OPSD': ['BNA1110'], 'CARMA': ['CARMA5018']}",2024,3482
4113,Bochum,OCGT,OCGT,PP,DE,20.7,0.0,0.0,0.0,2004,2004.0,51.48333333,7.216666667,"{'OPSD': ['BNA0110'], 'CARMA': ['CARMA5050', 'CARMA5052']}",2044,4675
4117,Bomlitz,OCGT,OCGT,CHP,DE,22.1,0.0,0.0,0.0,1969,1969.0,52.904778,9.658513000000001,"{'OPSD': ['BNA1524'], 'CARMA': ['CARMA58260']}",2009,5666
4155,Duisburg hamborn,other,OCGT,CHP,DE,385.0,0.0,0.0,0.0,1958,2003.0,51.49420100000001,6.728433,"{'OPSD': ['BNA0395', 'BNA0396', 'BNA0397'], 'ENTSOE': ['11WD7BEEC5XHAKW5']}",2008,4666
4159,Süd,CCGT,CCGT,PP,DE,410.0,0.0,0.0,0.0,1997,1997.0,49.513616999999996,8.431602999999999,"{'OPSD': ['BNA0615'], 'ENTSOE': ['11WD7LUDW5GSUEDE']}",2037,4722
4162,Duisburg ruhrort,other,OCGT,PP,DE,325.0,0.0,0.0,0.0,1955,1968.0,51.45967299999999,6.7305740000000025,"{'OPSD': ['BNA0218', 'BNA0217', 'BNA0219'], 'ENTSOE': ['11WD7BEEC5XRUKWN']}",1973,4662
4164,Restmüll stuttgart münster,waste,OCGT,CHP,DE,19.5,0.0,0.0,0.0,2009,2009.0,48.812529999999995,9.21895,"{'OPSD': ['BNA0939a'], 'ENTSOE': ['11WD4MUST5G----B']}",2034,3507
4165,West,OCGT,OCGT,CHP,DE,137.7,0.0,0.0,0.0,1994,2018.0,50.098496,8.653105,"{'OPSD': ['BNA1868', 'BNA0286'], 'ENTSOE': ['11WD2FFW-000203E']}",2058,4781
4206,Biomasse malchin,biomass,OCGT,CHP,DE,9.8,0.0,0.0,0.0,2003,2003.0,53.741859999999996,12.78302,"{'OPSD': ['BNA0628'], 'CARMA': ['CARMA26788']}",2023,5550
4209,Taussig willinger straße bad aibling,hydro,Run-Of-River,Store,DE,0.5,0.0,0.0,0.0,1957,1957.0,47.858139,12.0009975,"{'JRC': ['H2834', 'H2745'], 'CARMA': ['CARMA2776']}",2057,3304
4211,Altusried,hydro,Run-Of-River,Store,DE,6.05,0.0,0.0,0.0,1957,1957.0,47.817052,10.227499,"{'JRC': ['H2519', 'H2520'], 'CARMA': ['CARMA1222']}",2057,3490
4212,Am mühlbach,hydro,Run-Of-River,Store,DE,0.13,0.0,0.0,0.0,1957,1957.0,48.470735,7.939841,"{'JRC': ['H2926'], 'CARMA': ['CARMA1255']}",2057,3463
4214,Amerika,hydro,Run-Of-River,Store,DE,0.6459999999999999,0.0,0.0,0.0,1957,1957.0,50.9309,12.74681,"{'JRC': ['H2594'], 'CARMA': ['CARMA1352']}",2057,4520
4216,Grüner hirsch st. andreasberg,hydro,Run-Of-River,Store,DE,0.75,0.0,0.0,0.0,1957,1957.0,51.713689,10.517199,"{'JRC': ['H2671', 'H2837', 'H2979'], 'CARMA': ['CARMA42795']}",2057,4774
4218,Angermühle,hydro,Run-Of-River,Store,DE,1.79,0.0,0.0,0.0,1957,1957.0,48.001805,12.531413,"{'JRC': ['H2527'], 'CARMA': ['CARMA1549']}",2057,3318
4220,Antonsthal,hydro,Run-Of-River,Store,DE,0.6,0.0,0.0,0.0,1957,1957.0,50.500689,12.756474,"{'JRC': ['H2603'], 'CARMA': ['CARMA1726']}",2057,4508
4221,Äppelmannsmühle,hydro,Run-Of-River,Store,DE,0.037000000000000005,0.0,0.0,0.0,1957,1957.0,50.535088,8.040911,"{'JRC': ['H3235'], 'CARMA': ['CARMA1830']}",2057,4621
4227,Untere,hydro,Run-Of-River,Store,DE,0.055,0.0,0.0,0.0,1957,1957.0,49.299724,9.824035,"{'JRC': ['H3144'], 'CARMA': ['CARMA2495']}",2057,4714
4228,Auerhammer,hydro,Run-Of-River,Store,DE,1.05,0.0,0.0,0.0,1957,1957.0,50.57811733333333,12.689192,"{'JRC': ['H3127', 'H2823', 'H2573'], 'CARMA': ['CARMA2517']}",2057,4508
4229,Fkw auerbrücke,hydro,Run-Of-River,Store,DE,0.5,0.0,0.0,0.0,1957,1957.0,48.88873,8.703077,"{'JRC': ['H2638'], 'CARMA': ['CARMA2519']}",2057,3471
4254,Schluchsee,hydro,Pumped Storage,Store,DE,699.0,0.0,0.0,0.0,1957,1957.0,47.648998,7.9689999999999985,"{'JRC': ['H37'], 'ENTSOE': ['11WD4SWSW5HD7--F']}",2057,3458
4261,Breitenthal,hydro,Run-Of-River,Store,DE,1.08,0.0,0.0,0.0,1957,1957.0,48.2345,10.30013,"{'JRC': ['H2779', 'H2781', 'H2782', 'H2780'], 'CARMA': ['CARMA5694']}",2057,3494
4264,Rugenmühle,hydro,Run-Of-River,Store,DE,0.672,0.0,0.0,0.0,1957,1957.0,49.5,12.5,"{'JRC': ['H2581'], 'CARMA': ['CARMA6082']}",2057,4510
4282,Borstendorf envia therm,hydro,Run-Of-River,Store,DE,0.88,0.0,0.0,0.0,1957,1957.0,50.768601,13.163541,"{'JRC': ['H2566'], 'CARMA': ['CARMA5348']}",2057,4526
4285,Bamenohl,hydro,Run-Of-River,Store,DE,0.6,0.0,0.0,0.0,1957,1957.0,51.155555,7.992564,"{'JRC': ['H2602'], 'CARMA': ['CARMA3092']}",2057,4678
4286,Ew bammental,hydro,Run-Of-River,Store,DE,0.044,0.0,0.0,0.0,1957,1957.0,49.357446,8.784578,"{'JRC': ['H3210'], 'CARMA': ['CARMA3093']}",2057,4708
4294,Bitburg,hydro,Run-Of-River,Store,DE,0.42,0.0,0.0,0.0,1957,1957.0,50.010099,6.443189,"{'JRC': ['H2678'], 'CARMA': ['CARMA43110']}",2057,4601
4303,Bobingen,hydro,Run-Of-River,Store,DE,2.6,0.0,0.0,0.0,1957,1957.0,48.26,10.8,"{'JRC': ['H2522'], 'CARMA': ['CARMA5016']}",2057,3499
4309,Zielitz,OCGT,OCGT,PP,DE,27.0,0.0,0.0,0.0,1996,1996.0,52.29848,11.67963,"{'OPSD': ['BNA1089'], 'CARMA': ['CARMA51010']}",2036,4505
4310,Zolling,biomass,OCGT,PP,DE,18.3,0.0,0.0,0.0,2003,2003.0,48.45534,11.8019,"{'OPSD': ['BNA1091'], 'CARMA': ['CARMA51057']}",2023,3312
4339,Wählitz,lignite,OCGT,PP,DE,31.0,0.0,0.0,0.0,1994,1994.0,51.16664,12.07622,"{'OPSD': ['BNA1002'], 'CARMA': ['CARMA48697']}",2039,4553
4344,Spitzenlastkraftwerk wolfen,OCGT,OCGT,PP,DE,40.0,0.0,0.0,0.0,1997,1997.0,51.643127,12.228892,"{'OPSD': ['BNA1074'], 'CARMA': ['CARMA58995', 'CARMA50029']}",2037,4529
4346,Wörth,OCGT,OCGT,CHP,DE,59.0,0.0,0.0,0.0,2007,2007.0,49.069959999999995,8.30702,"{'OPSD': ['BNA1078'], 'CARMA': ['CARMA50129']}",2047,3466
4404,Jagsthausen,hydro,Run-Of-River,Store,DE,0.15,0.0,0.0,0.0,1957,1957.0,49.307651,9.465437,"{'JRC': ['H2888'], 'CARMA': ['CARMA19975']}",2057,4714
4405,Burgau,hydro,Run-Of-River,Store,DE,0.28,0.0,0.0,0.0,1957,1957.0,48.432,10.408,"{'JRC': ['H2775'], 'CARMA': ['CARMA20219']}",2057,3492
4410,Kalkofen,hydro,Run-Of-River,Store,DE,1.7280000000000002,0.0,0.0,0.0,1957,1957.0,50.31296500000001,7.896698,"{'JRC': ['H2529'], 'CARMA': ['CARMA20940']}",2057,4621
4416,Riedmühle tafertshofen,hydro,Run-Of-River,Store,DE,0.28500000000000003,0.0,0.0,0.0,1957,1957.0,48.207850500000006,10.2700375,"{'JRC': ['H2839', 'H3031'], 'CARMA': ['CARMA21912']}",2057,3494
4422,Ot klosterbuch,hydro,Run-Of-River,Store,DE,0.56,0.0,0.0,0.0,1957,1957.0,51.157979,12.975753,"{'JRC': ['H2629'], 'CARMA': ['CARMA22483']}",2057,4562
4429,Erzeugung hiltensweiler,hydro,Run-Of-River,Store,DE,0.992,0.0,0.0,0.0,1957,1957.0,47.65087850000001,9.779354,"{'JRC': ['H2650', 'H2649'], 'CARMA': ['CARMA17779']}",2057,3479
4432,Hohenstein,hydro,Run-Of-River,Store,DE,0.8,0.0,0.0,0.0,1957,1957.0,51.425143,7.349392,"{'JRC': ['H2569'], 'CARMA': ['CARMA49919']}",2057,4689
4434,Höselhurst,hydro,Run-Of-River,Store,DE,0.55,0.0,0.0,0.0,1957,1957.0,48.3,10.32,"{'JRC': ['H2630'], 'CARMA': ['CARMA18455']}",2057,3493
4435,Hospitalmühle,hydro,Run-Of-River,Store,DE,0.12,0.0,0.0,0.0,1957,1957.0,50.323882,11.916669,"{'JRC': ['H2937'], 'CARMA': ['CARMA18491']}",2057,4509
4436,Hottingen,hydro,Run-Of-River,Store,DE,0.465,0.0,0.0,0.0,1957,1957.0,47.633484,8.00019,"{'JRC': ['H2666'], 'CARMA': ['CARMA18527']}",2057,3458
4441,Hürden,hydro,Run-Of-River,Store,DE,0.08,0.0,0.0,0.0,1957,1957.0,49.22927,9.86415,"{'JRC': ['H3042'], 'CARMA': ['CARMA18885']}",2057,4714
4446,Inningen,hydro,Run-Of-River,Store,DE,2.5,0.0,0.0,0.0,1957,1957.0,48.29,10.83,"{'JRC': ['H2523'], 'CARMA': ['CARMA19417']}",2057,3499
4450,Stadtwerke bad herrenalb gmbh,hydro,Run-Of-River,Store,DE,0.064,0.0,0.0,0.0,1957,1957.0,48.802138,8.439955,"{'JRC': ['H3104'], 'CARMA': ['CARMA49956']}",2057,3471
4466,Mambach,hydro,Run-Of-River,Store,DE,1.152,0.0,0.0,0.0,1957,1957.0,47.730455,7.879136999999999,"{'JRC': ['H2547'], 'CARMA': ['CARMA26858']}",2057,3458
4468,Meckesheim,hydro,Run-Of-River,Store,DE,0.107,0.0,0.0,0.0,1957,1957.0,49.321511,8.815006,"{'JRC': ['H2965'], 'CARMA': ['CARMA27815']}",2057,4712
4473,Liebenstein,hydro,Run-Of-River,Store,DE,0.132,0.0,0.0,0.0,1957,1957.0,49.812886,12.329283,"{'JRC': ['H2916'], 'CARMA': ['CARMA25148']}",2057,4510
4487,Legau,hydro,Run-Of-River,Store,DE,1.155,0.0,0.0,0.0,1957,1957.0,47.869845,10.181145,"{'JRC': ['H2546'], 'CARMA': ['CARMA24852']}",2057,3490
4489,Staudachmühle,hydro,Run-Of-River,Store,DE,0.16,0.0,0.0,0.0,1957,1957.0,47.671453,9.880326,"{'JRC': ['H2871'], 'CARMA': ['CARMA59006']}",2057,3479
4490,Lahnstein,hydro,Run-Of-River,Store,DE,1.7280000000000002,0.0,0.0,0.0,1957,1957.0,50.307445,7.615963000000002,"{'JRC': ['H2530'], 'CARMA': ['CARMA24099']}",2057,4614
4498,Erzeugung hermaringen,hydro,Run-Of-River,Store,DE,0.452,0.0,0.0,0.0,1957,1957.0,48.599,10.255,"{'JRC': ['H2667'], 'CARMA': ['CARMA17544']}",2057,3497
4510,Fluhmühle,hydro,Run-Of-River,Store,DE,4.42,0.0,0.0,0.0,1957,1957.0,47.839568,10.192668,"{'JRC': ['H2548', 'H2549', 'H2551', 'H2552'], 'CARMA': ['CARMA13627']}",2057,3490
4522,An der enz,hydro,Run-Of-River,Store,DE,0.35,0.0,0.0,0.0,1957,1957.0,49.002843,9.14008,"{'JRC': ['H2717'], 'CARMA': ['CARMA12555']}",2057,4852
4523,Elpershofen,hydro,Run-Of-River,Store,DE,0.13,0.0,0.0,0.0,1957,1957.0,49.222848,9.902353,"{'JRC': ['H2925'], 'CARMA': ['CARMA12341']}",2057,4714
4524,Ellzee,hydro,Run-Of-River,Store,DE,0.72,0.0,0.0,0.0,1957,1957.0,48.33260300000001,10.318785,"{'JRC': ['H2578'], 'CARMA': ['CARMA12324']}",2057,3493
4525,Endresswehr,hydro,Run-Of-River,Store,DE,0.205,0.0,0.0,0.0,1957,1957.0,47.51517,10.26324,"{'JRC': ['H2832'], 'CARMA': ['CARMA11346']}",2057,3490
4528,Diez,hydro,Run-Of-River,Store,DE,0.8,0.0,0.0,0.0,1957,1957.0,50.375894,8.001703,"{'JRC': ['H2571'], 'CARMA': ['CARMA10818']}",2057,4621
4536,Eixendorf,hydro,Run-Of-River,Store,DE,0.39,0.0,0.0,0.0,1957,1957.0,49.339499,12.4797875,"{'JRC': ['H2843', 'H2840'], 'CARMA': ['CARMA11967']}",2057,4511
4537,Eckertalsperre,hydro,Run-Of-River,Store,DE,0.43,0.0,0.0,0.0,1957,1957.0,51.842411,10.576558,"{'JRC': ['H2677'], 'CARMA': ['CARMA11749']}",2057,4774
4540,Walzenmühle trier ehrang,hydro,Run-Of-River,Store,DE,0.06,0.0,0.0,0.0,1957,1957.0,49.808406,6.683345,"{'JRC': ['H3122'], 'CARMA': ['CARMA11904']}",2057,4787
4541,Eibele,hydro,Run-Of-River,Store,DE,0.637,0.0,0.0,0.0,1957,1957.0,47.528466,9.968629,"{'JRC': ['H2597'], 'CARMA': ['CARMA11910']}",2057,3479
4546,Gera debschwitz weiße elster,hydro,Run-Of-River,Store,DE,0.42,0.0,0.0,0.0,1957,1957.0,50.856833,12.077631,"{'JRC': ['H2680'], 'CARMA': ['CARMA14947']}",2057,4513
4550,Gutach an der wilden gutach,hydro,Run-Of-River,Store,DE,0.2,0.0,0.0,0.0,1957,1957.0,48.119746,7.990005,"{'JRC': ['H2836'], 'CARMA': ['CARMA16366']}",2057,3454
4552,Kettenfabrik in sundern hachen,hydro,Run-Of-River,Store,DE,0.11,0.0,0.0,0.0,1957,1957.0,51.378194,7.980954,"{'JRC': ['H2946'], 'CARMA': ['CARMA16434']}",2057,4688
4560,Hammermühle,hydro,Run-Of-River,Store,DE,0.05,0.0,0.0,0.0,1957,1957.0,49.076636,11.816349,"{'JRC': ['H3167'], 'CARMA': ['CARMA16736', 'CARMA16737']}",2057,3316
4564,Hedrichwerk,hydro,Run-Of-River,Store,DE,0.72,0.0,0.0,0.0,1957,1957.0,50.8148845,12.527338499999999,"{'JRC': ['H2709', 'H2707'], 'CARMA': ['CARMA17295']}",2057,4523
4569,Laufwasserkraftwerk hengstey,hydro,Run-Of-River,Store,DE,1.4,0.0,0.0,0.0,1957,1957.0,51.400404,7.452039999999997,"{'JRC': ['H2540'], 'CARMA': ['CARMA17482']}",2057,4686
4573,Günzburg wasserburg,hydro,Run-Of-River,Store,DE,0.196,0.0,0.0,0.0,1957,1957.0,48.43776,10.271377,"{'JRC': ['H2841'], 'CARMA': ['CARMA16325']}",2057,3493
4585,Rosenhof,hydro,Run-Of-River,Store,DE,0.09,0.0,0.0,0.0,1957,1957.0,49.4927,12.5098,"{'JRC': ['H3025'], 'CARMA': ['CARMA16324', 'CARMA49158']}",2057,4511
4589,Großaitingen,hydro,Run-Of-River,Store,DE,2.4,0.0,0.0,0.0,1957,1957.0,48.23,10.76,"{'JRC': ['H2525'], 'CARMA': ['CARMA16020']}",2057,3499
4590,Großarmschlag hauptkraftwerk,hydro,Run-Of-River,Store,DE,3.35,0.0,0.0,0.0,1957,1957.0,48.883166,13.359728,"{'JRC': ['H2517'], 'CARMA': ['CARMA16023']}",2057,3324
4592,Gündenhausen,hydro,Run-Of-River,Store,DE,0.279,0.0,0.0,0.0,1957,1957.0,47.649142,7.800731,"{'JRC': ['H2776'], 'CARMA': ['CARMA16215']}",2057,3458
4594,Gundelsheim,hydro,Run-Of-River,Store,DE,3.05,0.0,0.0,0.0,1957,1957.0,49.28057800000001,9.156055,"{'JRC': ['H2518'], 'CARMA': ['CARMA16300']}",2057,4852
4615,Biomasseheizkraftwerk piesteritz,biomass,OCGT,CHP,DE,18.1,0.0,0.0,0.0,2009,2009.0,51.870883,12.569466,"{'OPSD': ['BNA0621'], 'CARMA': ['CARMA34583']}",2029,4529
4616,Mhkw pirmasens,waste,OCGT,CHP,DE,15.0,0.0,0.0,0.0,1999,1999.0,49.22822,7.59553,"{'OPSD': ['BNA1229'], 'CARMA': ['CARMA34769']}",2024,4605
4659,Regensburg,OCGT,OCGT,PP,DE,13.3,0.0,0.0,0.0,2012,2016.0,48.980011,12.17025,"{'OPSD': ['BNA1861', 'BNA1862'], 'CARMA': ['CARMA4434', 'CARMA36968']}",2056,3317
4666,Potsdam süd,OCGT,OCGT,CHP,DE,81.8,0.0,0.0,0.0,1996,1996.0,52.36605,13.11251,"{'OPSD': ['BNA0814'], 'CARMA': ['CARMA35540']}",2036,4576
4695,Dkw nord,oil,OCGT,PP,DE,11.4,0.0,0.0,0.0,1988,1988.0,48.062671,10.486642999999999,"{'OPSD': ['BNA1212'], 'CARMA': ['CARMA28561']}",2028,3490
4698,Hillegossen,CCGT,CCGT,PP,DE,37.5,0.0,0.0,0.0,2005,2005.0,52.033503,8.539061,"{'OPSD': ['BNA0100'], 'CARMA': ['CARMA28748']}",2045,4749
4714,Dampfkraftwerk marbach am neckar,oil,CCGT,PP,DE,425.9,0.0,0.0,0.0,1971,1975.0,48.927496999999995,9.230005,"{'OPSD': ['BNA0647', 'BNA0649', 'BNA0648'], 'CARMA': ['CARMA27153']}",2015,3482
4725,Stora enso maxau,biomass,OCGT,PP,DE,78.0,0.0,0.0,0.0,2010,2010.0,49.0393,8.31134,"{'OPSD': ['BNA0520'], 'CARMA': ['CARMA59087']}",2030,3466
4729,Werk offstein,OCGT,OCGT,CHP,DE,30.0,0.0,0.0,0.0,1961,1961.0,49.59914000000001,8.22096,"{'OPSD': ['BNA1516'], 'CARMA': ['CARMA32224']}",2001,4722
4738,Neubrandenburg,CCGT,CCGT,CHP,DE,75.0,0.0,0.0,0.0,1997,1997.0,53.5745,13.295142000000002,"{'OPSD': ['BNA0688'], 'CARMA': ['CARMA30861']}",2037,5592
4739,Kwk neumarkt,biomass,OCGT,PP,DE,15.6,0.0,0.0,0.0,1997,1997.0,49.26133,11.4516,"{'OPSD': ['BNA0692'], 'CARMA': ['CARMA30904']}",2017,4500
4740,Neuötting,hydro,Run-Of-River,PP,DE,26.1,0.0,0.0,0.0,1951,1951.0,48.24856,12.6882725,"{'OPSD': ['BNA0695'], 'CARMA': ['CARMA30911']}",2051,3318
4748,Oberaudorf ebbs,hydro,Run-Of-River,PP,DE,30.0,0.0,0.0,0.0,1992,1992.0,47.641329999999996,12.19903,"{'OPSD': ['BNA0748'], 'CARMA': ['CARMA32051']}",2092,3304
4749,Bhkw obere viehweide,OCGT,OCGT,CHP,DE,13.4,0.0,0.0,0.0,2000,2000.0,48.510855,9.071463,"{'OPSD': ['BNA0957'], 'CARMA': ['CARMA4429']}",2040,3481
4750,Obernburg,CCGT,CCGT,PP,DE,100.0,0.0,0.0,0.0,1920,1995.0,49.82935,9.14824,"{'OPSD': ['BNA0755b', 'BNA0755a'], 'CARMA': ['CARMA32080']}",2035,4855
4751,Offenbach,coal,OCGT,CHP,DE,54.0,0.0,0.0,0.0,1990,1990.0,50.065155,8.768964,"{'OPSD': ['BNA0758'], 'CARMA': ['CARMA17951']}",2035,4716
4774,Solvay rheinberg,OCGT,OCGT,PP,DE,79.0,0.0,0.0,0.0,1975,1975.0,51.56489000000001,6.578239999999999,"{'OPSD': ['BNA0834'], 'CARMA': ['CARMA37176']}",2015,4642
4778,Trea leuna,waste,OCGT,PP,DE,32.6,0.0,0.0,0.0,2005,2007.0,51.29976,12.0193,"{'OPSD': ['BNA0590', 'BNA0591'], 'CARMA': ['CARMA46193']}",2032,4561
4792,Unterbreizbach,OCGT,OCGT,PP,DE,20.0,0.0,0.0,0.0,1995,1995.0,50.81319000000001,9.97752,"{'OPSD': ['BNA1271'], 'CARMA': ['CARMA47155']}",2035,4740
4795,Trea breisgau,waste,OCGT,PP,DE,13.6,0.0,0.0,0.0,2005,2005.0,47.890609999999995,7.61608,"{'OPSD': ['BNA1139'], 'CARMA': ['CARMA46192']}",2030,3454
4804,Thyrow,OCGT,OCGT,PP,DE,183.5,0.0,0.0,0.0,1987,1989.0,52.23015,13.30195,"{'OPSD': ['BNA0741', 'BNA0740', 'BNA0734', 'BNA0738', 'BNA0739'], 'CARMA': ['CARMA45355']}",2029,4535
4855,Ava velsen,waste,OCGT,PP,DE,16.0,0.0,0.0,0.0,1997,1997.0,49.21387,6.83445,"{'OPSD': ['BNA1244'], 'CARMA': ['CARMA47917']}",2022,4608
4864,Bad salzungen,OCGT,OCGT,CHP,DE,9.7,0.0,0.0,0.0,1994,1994.0,50.800266,10.220563,"{'OPSD': ['BNA1105'], 'CARMA': ['CARMA2800']}",2034,4764
4890,Marienehe,CCGT,CCGT,CHP,DE,108.0,0.0,0.0,0.0,1996,1996.0,54.12545400000001,12.081897,"{'OPSD': ['BNA0848'], 'CARMA': ['CARMA38028']}",2036,5544
4895,Anlage rüsselsheim,CCGT,CCGT,PP,DE,112.1,0.0,0.0,0.0,1999,1999.0,49.99204,8.41411,"{'OPSD': ['BNA0857'], 'CARMA': ['CARMA38291']}",2039,4618
4906,Upm schongau,OCGT,OCGT,CHP,DE,140.0,0.0,0.0,0.0,1954,2014.0,47.80811,10.902510000000001,"{'OPSD': ['BNA1248b', 'BNA1248a'], 'CARMA': ['CARMA40163']}",2054,3323
4910,Dow stade,CCGT,CCGT,PP,DE,157.0,0.0,0.0,0.0,2015,2015.0,53.65191970000001,9.507866499999999,"{'OPSD': ['BNA0918b'], 'CARMA': ['CARMA42999']}",2055,5669
4913,Staßfurt,CCGT,CCGT,CHP,DE,100.0,0.0,0.0,0.0,2015,2015.0,51.865527,11.573813000000001,"{'OPSD': ['BNA0922'], 'CARMA': ['CARMA43090', 'CARMA43087']}",2055,4503
4914,Steinitz,OCGT,OCGT,PP,DE,11.4,0.0,0.0,0.0,1999,1999.0,52.83005,11.10328,"{'OPSD': ['BNA1403'], 'CARMA': ['CARMA43179']}",2039,4773
4915,Zellstoff stendal gmbh,biomass,OCGT,CHP,DE,138.9,0.0,0.0,0.0,2004,2004.0,52.72713,12.01115,"{'OPSD': ['BNA0027'], 'CARMA': ['CARMA62250']}",2024,5556
4916,Stendal,OCGT,OCGT,CHP,DE,22.0,0.0,0.0,0.0,1994,1994.0,52.6087132,11.832450699999999,"{'OPSD': ['BNA1489'], 'CARMA': ['CARMA43200']}",2034,5556
4921,Restmüll stuttgart münster,oil,OCGT,CHP,DE,69.9,0.0,0.0,0.0,1974,1974.0,48.81583300000002,9.221111,"{'OPSD': ['BNA0939b', 'BNA0938', 'BNA0937'], 'CARMA': ['CARMA16102']}",2014,3507
4922,U. südraum,OCGT,OCGT,PP,DE,38.6,0.0,0.0,0.0,2012,2012.0,49.213706,6.97813,"{'OPSD': ['BNA1464'], 'CARMA': ['CARMA43561']}",2052,4608
4929,Altenstadt,biomass,OCGT,CHP,DE,9.8,0.0,0.0,0.0,1999,1999.0,47.79714,10.85874,"{'OPSD': ['BNA0021'], 'CARMA': ['CARMA40164']}",2019,3323
4930,Schwarza,OCGT,OCGT,CHP,DE,26.5,0.0,0.0,0.0,1936,1936.0,50.686928,11.329303,"{'OPSD': ['BNA0856'], 'CARMA': ['CARMA58828']}",1976,4575
4931,Schwarzheide,CCGT,CCGT,PP,DE,122.0,0.0,0.0,0.0,1994,1994.0,51.47617,13.8891,"{'OPSD': ['BNA0893'], 'CARMA': ['CARMA40240']}",2034,4507
4940,Sigmundshall,OCGT,OCGT,PP,DE,11.0,0.0,0.0,0.0,1974,1974.0,52.41852,9.36815,"{'OPSD': ['BNA1285'], 'CARMA': ['CARMA41566']}",2014,4755
4948,Abfallentsorgungszentrum asdonkshof,waste,OCGT,PP,DE,16.0,0.0,0.0,0.0,1997,1997.0,51.522420000000004,6.574669999999999,{'OPSD': ['BNA1167']},2022,4641
4949,Abfallentsorgungszentrum asdonkshof,oil,OCGT,PP,DE,4.8,0.0,0.0,0.0,1997,1997.0,51.522420000000004,6.574669999999999,{'OPSD': ['BNA1166']},2037,4641
4950,Ads anlage,OCGT,OCGT,PP,DE,96.5,0.0,0.0,0.0,2012,2012.0,50.09178,8.53105,{'OPSD': ['BNA0497']},2052,4726
4951,Ahkw neunkirchen,waste,OCGT,CHP,DE,11.6,0.0,0.0,0.0,1977,1977.0,49.338570000000004,7.17001,{'OPSD': ['BNA1448']},2002,4607
4952,Altbach deizisau,OCGT,OCGT,CHP,DE,253.0,0.0,0.0,0.0,1971,1997.0,48.717611,9.374917,"{'OPSD': ['BNA0017', 'BNA0015', 'BNA0018', 'BNA0016']}",2037,3484
4953,Amk abfallentsorgungsgesellschaft des märkischen kreises mbh,waste,OCGT,PP,DE,12.6,0.0,0.0,0.0,1981,1981.0,51.3971,7.696739999999999,{'OPSD': ['BNA1289']},2006,4688
4954,Anlage,CCGT,CCGT,PP,DE,47.0,0.0,0.0,0.0,2013,2013.0,49.988217999999996,9.155761,{'OPSD': ['BNA1337e']},2053,4855
4957,Ava gmbh,waste,OCGT,PP,DE,10.0,0.0,0.0,0.0,1994,1994.0,48.40113,10.9356,{'OPSD': ['BNA1295']},2019,3498
4959,Avg köln,waste,OCGT,PP,DE,18.0,0.0,0.0,0.0,2017,2017.0,50.99962,6.940958999999999,{'OPSD': ['BNA1867']},2042,4650
4964,Baunatal vw werksgelände,CCGT,CCGT,PP,DE,78.0,0.0,0.0,0.0,2011,2011.0,51.25308,9.4379,{'OPSD': ['BNA0059b']},2051,4741
4966,Beg,waste,OCGT,PP,DE,14.0,0.0,0.0,0.0,1977,1977.0,53.547819999999994,8.61792,{'OPSD': ['BNA1116']},2002,5661
4968,Bhkw,OCGT,OCGT,CHP,DE,13.0,0.0,0.0,0.0,2013,2013.0,49.047474,8.281602000000001,{'OPSD': ['BNA1504']},2053,3466
4969,Bhkw an klinkerweg,OCGT,OCGT,CHP,DE,10.2,0.0,0.0,0.0,2000,2000.0,51.21686,6.94733,{'OPSD': ['BNA1138']},2040,4654
4970,Bhkw h.,OCGT,OCGT,CHP,DE,21.1,0.0,0.0,0.0,2012,2012.0,51.25454000000001,6.78648,{'OPSD': ['BNA1503']},2052,4664
4971,Bhkw hauffstraße,CCGT,CCGT,CHP,DE,9.8,0.0,0.0,0.0,2011,2011.0,48.49395,9.18563,{'OPSD': ['BNA0832']},2051,3481
4972,Bhkw ludwigshafen,OCGT,OCGT,CHP,DE,12.5,0.0,0.0,0.0,2008,2008.0,49.45308,8.433639999999999,{'OPSD': ['BNA1196a']},2048,4720
4973,Biohkw,biomass,OCGT,CHP,DE,13.2,0.0,0.0,0.0,2004,2012.0,48.397040000000004,9.964839999999999,"{'OPSD': ['BNA1405c', 'BNA1405b']}",2032,3476
4974,Biomasse,biomass,OCGT,CHP,DE,20.0,0.0,0.0,0.0,2003,2003.0,53.097159999999995,7.3954,{'OPSD': ['BNA0775']},2023,5650
4975,Biomasse,biomass,OCGT,CHP,DE,10.6,0.0,0.0,0.0,2013,2013.0,52.619274,6.8693100000000005,{'OPSD': ['BNA0250a']},2033,5733
4976,Biomasse verstromungs anlage,biomass,OCGT,PP,DE,20.0,0.0,0.0,0.0,2004,2004.0,51.41111400000001,7.491697999999999,{'OPSD': ['BNA0388']},2024,4686
4977,Biomasseheizkraftwerk wiesbaden,waste,OCGT,CHP,DE,10.5,0.0,0.0,0.0,2014,2014.0,50.042128999999996,8.261157,{'OPSD': ['BNA1520']},2039,4618
4978,Bkf,biomass,OCGT,PP,DE,12.4,0.0,0.0,0.0,2004,2004.0,50.12943,8.76792,{'OPSD': ['BNA0283']},2024,4716
4979,Blockheizkraftwerk,biomass,OCGT,CHP,DE,1.9,0.0,0.0,0.0,2005,2010.0,49.988217999999996,9.155761,"{'OPSD': ['BNA1337b', 'BNA1337c']}",2030,4855
4980,Bmhkw binderholz,biomass,OCGT,CHP,DE,15.1,0.0,0.0,0.0,2007,2007.0,48.79123,11.506789999999999,{'OPSD': ['BNA0553']},2027,3305
4981,Boa,lignite,OCGT,PP,DE,2120.0,0.0,0.0,0.0,2012,2012.0,51.0365,6.61332,"{'OPSD': ['BNA1401b', 'BNA1401a']}",2057,4634
4982,Bohrhügel,OCGT,OCGT,CHP,DE,13.5,0.0,0.0,0.0,1995,1995.0,50.6315,10.69866,{'OPSD': ['BNA1264']},2035,4764
4985,Bp werk lingen,OCGT,OCGT,PP,DE,66.0,0.0,0.0,0.0,1996,1996.0,52.56060600000001,7.295164,{'OPSD': ['BNA1509']},2036,4695
4986,Bskw sn,other,Storage Technologies,Store,DE,12.5,0.0,0.0,0.0,2014,2014.0,53.637691000000004,11.403466,{'OPSD': ['BNA1827']},2019,5534
4993,Co generation,OCGT,OCGT,PP,DE,11.5,0.0,0.0,0.0,1991,1991.0,49.66328,8.358939999999999,{'OPSD': ['BNA1284']},2031,4722
4994,Cogeneration,OCGT,OCGT,CHP,DE,25.4,0.0,0.0,0.0,1996,1996.0,48.787890000000004,11.75617,{'OPSD': ['BNA0702']},2036,3316
5000,Der ebs kessel,waste,CCGT,PP,DE,35.0,0.0,0.0,0.0,2009,2009.0,51.801239,11.75441,{'OPSD': ['BNA0088b']},2034,4503
5001,Der sappi stockstadt gmbh,coal,OCGT,CHP,DE,24.8,0.0,0.0,0.0,1970,1970.0,49.97745,9.068719999999999,{'OPSD': ['BNA0926b']},2015,4855
5002,Der sappi stockstadt gmbh,biomass,OCGT,CHP,DE,14.0,0.0,0.0,0.0,2003,2003.0,49.97745,9.068719999999999,{'OPSD': ['BNA0926a']},2023,4855
5003,Dk,other,OCGT,PP,DE,21.0,0.0,0.0,0.0,2010,2010.0,51.419059999999995,6.7385,{'OPSD': ['BNA1409']},2015,4662
5009,Ebs,other,OCGT,CHP,DE,23.5,0.0,0.0,0.0,2011,2011.0,52.16883,14.640789999999999,{'OPSD': ['BNA0237']},2016,4550
5010,Ebs rostock,waste,OCGT,CHP,DE,17.0,0.0,0.0,0.0,2009,2009.0,54.14465,12.14123,{'OPSD': ['BNA1243']},2034,5544
5011,Ebs witzenhausen,other,OCGT,PP,DE,28.0,0.0,0.0,0.0,2009,2009.0,51.318082000000004,9.849008,{'OPSD': ['BNA1465a']},2014,4762
5012,Eew energy from waste hannover gmbh,waste,OCGT,PP,DE,22.5,0.0,0.0,0.0,2005,2005.0,52.41178,9.85297,{'OPSD': ['BNA0417']},2030,4768
5013,Eew großräschen,waste,OCGT,PP,DE,23.3,0.0,0.0,0.0,2007,2007.0,51.5929,14.0241,{'OPSD': ['BNA0380']},2032,4537
5014,Eew göppingen,waste,OCGT,PP,DE,11.0,0.0,0.0,0.0,1975,1975.0,48.682320000000004,9.67126,{'OPSD': ['BNA1144']},2000,3486
5015,Egger brilon,biomass,OCGT,PP,DE,18.0,0.0,0.0,0.0,1991,1991.0,51.40667,8.60115,{'OPSD': ['BNA0156a']},2011,4731
5018,Emden biomasse,biomass,OCGT,PP,DE,22.0,0.0,0.0,0.0,2005,2005.0,53.342169999999996,7.2062399999999975,{'OPSD': ['BNA0244']},2025,5651
5019,Energieanlage,biomass,OCGT,PP,DE,18.6,0.0,0.0,0.0,2002,2002.0,53.148966,12.379742,{'OPSD': ['BNA1398']},2022,5554
5020,Energieversogung wedding,OCGT,OCGT,PP,DE,15.0,0.0,0.0,0.0,1972,1972.0,52.53931,13.363904000000002,{'OPSD': ['BNA1821']},2012,5539
5021,Energiezentrale,OCGT,OCGT,PP,DE,33.74,0.0,0.0,0.0,1992,2014.0,48.35744199999999,11.78504,"{'OPSD': ['BNA1678', 'BNA1327a', 'BNA1327b']}",2054,3315
5022,Energiezentrale,OCGT,OCGT,PP,DE,11.1,0.0,0.0,0.0,1991,2005.0,51.57442,7.29794,"{'OPSD': ['BNA1120', 'BNA1121']}",2045,4646
5023,Energiezentrum mohn media,OCGT,OCGT,PP,DE,25.0,0.0,0.0,0.0,1994,1994.0,51.907326,8.408835,{'OPSD': ['BNA0386']},2034,4746
5024,Enertec hameln,waste,OCGT,PP,DE,13.2,0.0,0.0,0.0,1913,1913.0,52.09875,9.38821,{'OPSD': ['BNA0407']},1938,4592
5025,Enertec hameln,biomass,OCGT,PP,DE,14.5,0.0,0.0,0.0,2002,2002.0,52.09875,9.38821,{'OPSD': ['BNA0408']},2022,4592
5026,Enertrag netz gmbh uw bertikow,biomass,OCGT,PP,DE,20.0,0.0,0.0,0.0,2006,2006.0,53.252131999999996,13.957019,{'OPSD': ['BNA0090']},2026,5553
5029,Erlangen,CCGT,CCGT,CHP,DE,28.3,0.0,0.0,0.0,2005,2014.0,49.593231,11.0013565,"{'OPSD': ['BNA0261c', 'BNA0261a']}",2054,4765
5032,Evc globalfoundries,OCGT,OCGT,PP,DE,34.3,0.0,0.0,0.0,1998,1998.0,51.12697,13.715,{'OPSD': ['BNA1396']},2038,4560
5033,Eve,waste,OCGT,PP,DE,14.5,0.0,0.0,0.0,2009,2009.0,52.53505,12.362589999999999,{'OPSD': ['BNA1233']},2034,4533
5034,Evonik rheinfelden,OCGT,OCGT,CHP,DE,15.7,0.0,0.0,0.0,1979,1979.0,47.570794,7.807192,{'OPSD': ['BNA1408']},2019,3458
5035,Ez,lignite,OCGT,PP,DE,23.3,0.0,0.0,0.0,1993,1993.0,51.04885,12.110380000000001,{'OPSD': ['BNA1400a']},2038,4513
5036,Ez,OCGT,OCGT,PP,DE,23.3,0.0,0.0,0.0,1993,1993.0,51.04885,12.110380000000001,{'OPSD': ['BNA1400b']},2033,4513
5037,Fenne grubengaskraftwerk,other,CCGT,CHP,DE,42.0,0.0,0.0,0.0,2003,2003.0,49.249018,6.879244,{'OPSD': ['BNA0997']},2008,4608
5038,Ffo,lignite,OCGT,CHP,DE,45.0,0.0,0.0,0.0,1997,1997.0,52.346000000000004,14.546,{'OPSD': ['BNA0284']},2042,4550
5039,Fhkw ludwigshafen,waste,OCGT,CHP,DE,28.0,0.0,0.0,0.0,1967,1967.0,49.48505,8.426219999999999,{'OPSD': ['BNA1197']},1992,4720
5041,Fkk,lignite,OCGT,PP,DE,33.5,0.0,0.0,0.0,1989,1989.0,51.279099,9.484012,{'OPSD': ['BNA0523']},2034,4742
5042,Fl,CCGT,CCGT,CHP,DE,78.0,0.0,0.0,0.0,2016,2016.0,54.804777,9.433357,{'OPSD': ['BNA1819']},2056,5696
5043,Ford saarlouis,OCGT,OCGT,PP,DE,22.0,0.0,0.0,0.0,2016,2016.0,49.346652,6.765101,{'OPSD': ['BNA1859']},2056,4598
5044,Fortuna nord,lignite,OCGT,PP,DE,15.0,0.0,0.0,0.0,1939,1939.0,50.945598,6.663575999999999,{'OPSD': ['BNA0714']},1984,4629
5045,Frechen wachtberg,lignite,OCGT,PP,DE,176.0,0.0,0.0,0.0,1959,1988.0,50.8976,6.7930990000000016,{'OPSD': ['BNA0292']},2033,4779
5046,Freiberg,OCGT,OCGT,CHP,DE,13.4,0.0,0.0,0.0,2013,2013.0,50.913038,13.324848000000001,{'OPSD': ['BNA1541']},2053,4562
5048,Fs karton,OCGT,OCGT,PP,DE,18.9,0.0,0.0,0.0,1992,1992.0,51.2171,6.69654,{'OPSD': ['BNA1406']},2032,4633
5050,Gasblock,OCGT,OCGT,CHP,DE,293.0,0.0,0.0,0.0,1977,1977.0,51.221379999999996,6.7313100000000015,{'OPSD': ['BNA0221c']},2017,4633
5051,Gaskraftwerk,OCGT,OCGT,PP,DE,15.1,0.0,0.0,0.0,1996,1996.0,50.7055,6.65362,{'OPSD': ['BNA1094']},2036,4779
5052,Gasmotor,CCGT,CCGT,PP,DE,23.3,0.0,0.0,0.0,2011,2013.0,47.856066,12.13409,"{'OPSD': ['BNA0842b', 'BNA0843', 'BNA0842a']}",2053,3304
5053,Gasturbine,OCGT,OCGT,PP,DE,30.7,0.0,0.0,0.0,2004,2004.0,48.40099,10.93576,{'OPSD': ['BNA0033']},2044,3498
5054,Gasturbine,CCGT,CCGT,PP,DE,51.9,0.0,0.0,0.0,1996,1996.0,50.83051,6.95936,{'OPSD': ['BNA1279']},2036,4652
5055,Gasturbinen st. wendel,OCGT,OCGT,CHP,DE,19.5,0.0,0.0,0.0,2014,2014.0,49.464184,7.148897,{'OPSD': ['BNA1863']},2054,4607
5057,Gemeinschaftskraftwerk weig,CCGT,CCGT,PP,DE,38.8,0.0,0.0,0.0,1992,2013.0,50.321134,7.233907,"{'OPSD': ['BNA1523b', 'BNA1523a']}",2053,4612
5058,Gemeinschaftskraftwerk weig,other,OCGT,PP,DE,10.3,0.0,0.0,0.0,1992,1992.0,50.321134,7.233907,{'OPSD': ['BNA1523c']},1997,4612
5059,Gichtgaskraftwerk dillingen,other,OCGT,PP,DE,85.0,0.0,0.0,0.0,2010,2010.0,49.35485,6.731489999999999,{'OPSD': ['BNA1115']},2015,4598
5060,Gks,waste,OCGT,PP,DE,24.4,0.0,0.0,0.0,1990,1990.0,50.02969,10.224,{'OPSD': ['BNA0895']},2015,4777
5061,Gmva niederrhein,waste,OCGT,PP,DE,61.5,0.0,0.0,0.0,1991,2006.0,51.485479999999995,6.8344,"{'OPSD': ['BNA0750', 'BNA0751']}",2031,4662
5062,Goldenberg,lignite,OCGT,PP,DE,0.0,,0.0,0.0,1993,1993.0,50.8608,6.8402,{'OPSD': ['BNA0490a']},2038,4779
5065,Großbatteriesystem gbs bexbach,other,Storage Technologies,Store,DE,15.0,0.0,0.0,0.0,2016,2016.0,49.363481,7.2371360000000005,{'OPSD': ['BNA1816']},2021,4607
5066,Großbatteriesystem gbs fenne,other,Storage Technologies,Store,DE,15.0,0.0,0.0,0.0,2016,2016.0,49.249018,6.879244,{'OPSD': ['BNA1814']},2021,4608
5067,Großbatteriesystem gbs herne,other,Storage Technologies,Store,DE,15.0,0.0,0.0,0.0,2016,2016.0,51.550753,7.187481,{'OPSD': ['BNA1813']},2021,4676
5068,Großbatteriesystem gbs walsum,other,Storage Technologies,Store,DE,15.0,0.0,0.0,0.0,2016,2016.0,51.52672000000001,6.71868,{'OPSD': ['BNA1815']},2021,4666
5069,Großbatteriesystem gbs weiher,other,Storage Technologies,Store,DE,15.0,0.0,0.0,0.0,2016,2016.0,49.33413028,7.031355927999999,{'OPSD': ['BNA1812']},2021,4608
5070,Grubenheizkraftwerk,lignite,OCGT,CHP,DE,45.0,0.0,0.0,0.0,1979,1979.0,51.462749,11.714027999999999,{'OPSD': ['BNA1486']},2024,4561
5071,Hafen,waste,OCGT,PP,DE,33.0,0.0,0.0,0.0,2009,2009.0,53.12481999999999,8.72887,{'OPSD': ['BNA0139']},2034,5739
5072,Hamburger rieger,waste,OCGT,PP,DE,18.7,0.0,0.0,0.0,2013,2013.0,51.520132000000004,14.337382999999999,{'OPSD': ['BNA1510']},2038,4547
5073,Hattorf,OCGT,OCGT,PP,DE,52.0,0.0,0.0,0.0,2013,2013.0,50.82614,9.979705,"{'OPSD': ['BNA0804b', 'BNA0804a']}",2053,4740
5074,Hbb,OCGT,OCGT,PP,DE,24.0,0.0,0.0,0.0,2001,2001.0,47.79598,12.11927,{'OPSD': ['BNA1328']},2041,3304
5075,Hhkw berlin neukölln,biomass,OCGT,CHP,DE,16.5,0.0,0.0,0.0,2004,2004.0,52.425290000000004,13.517307999999998,{'OPSD': ['BNA0068']},2024,4544
5077,Holthausen,OCGT,OCGT,PP,DE,84.0,0.0,0.0,0.0,1948,1948.0,51.17565,6.83805,{'OPSD': ['BNA1336']},1988,4654
5080,Ihkw andernach,waste,OCGT,CHP,DE,12.5,0.0,0.0,0.0,2008,2008.0,50.43486,7.4321100000000015,{'OPSD': ['BNA1291']},2033,4612
5081,Ilk,CCGT,CCGT,CHP,DE,107.0,0.0,0.0,0.0,1994,1994.0,51.29976,12.0193,"{'OPSD': ['BNA0593', 'BNA0594', 'BNA0595']}",2034,4561
5082,Ilk,other,CCGT,PP,DE,28.7,0.0,0.0,0.0,1994,2010.0,51.29976,12.0193,"{'OPSD': ['BNA0597', 'BNA0598b']}",2015,4561
5083,Ilk ekt,other,OCGT,PP,DE,14.0,0.0,0.0,0.0,2000,2000.0,51.79988,11.7581,{'OPSD': ['BNA0598a']},2005,4503
5084,Industriekraftwerk greifswald,OCGT,OCGT,PP,DE,38.0,0.0,0.0,0.0,2013,2013.0,54.137882999999995,13.667148999999998,{'OPSD': ['BNA1531']},2053,5551
5085,Ineos,OCGT,OCGT,PP,DE,24.0,0.0,0.0,0.0,1995,1995.0,51.46935,6.64358,{'OPSD': ['BNA1332']},2035,4641
5086,Irsching,oil,OCGT,PP,DE,415.0,0.0,0.0,0.0,1974,1974.0,48.76702,11.580033,{'OPSD': ['BNA0993']},2014,3305
5088,Karcherstr.,OCGT,OCGT,CHP,DE,11.6,0.0,0.0,0.0,1989,1989.0,49.434659,7.760234,{'OPSD': ['BNA0510a']},2029,4605
5089,Karlstraße,waste,OCGT,CHP,DE,12.0,0.0,0.0,0.0,1990,1990.0,50.73382,7.08055,{'OPSD': ['BNA0117a']},2015,4656
5090,Karlstraße,OCGT,OCGT,CHP,DE,95.0,0.0,0.0,0.0,2013,2013.0,50.73382,7.08055,{'OPSD': ['BNA0117b']},2053,4656
5091,Karnap,waste,OCGT,PP,DE,38.0,0.0,0.0,0.0,1987,1987.0,51.51543,6.9938199999999995,{'OPSD': ['BNA0519']},2012,4661
5093,Kessel,lignite,OCGT,PP,DE,9.3,0.0,0.0,0.0,1983,1983.0,50.77701,6.48605,{'OPSD': ['BNA1511a']},2028,4627
5094,Kesselhaus zuckerfabrik,OCGT,OCGT,PP,DE,15.1,0.0,0.0,0.0,1993,1993.0,53.85625,13.7101,{'OPSD': ['BNA0025']},2033,5551
5095,Kläranlage,waste,OCGT,PP,DE,12.0,0.0,0.0,0.0,1992,1992.0,48.552941,8.407401,{'OPSD': ['BNA0616a']},2017,3464
5096,Kombi,OCGT,OCGT,CHP,DE,50.0,0.0,0.0,0.0,1988,1988.0,51.279099,9.484012,{'OPSD': ['BNA0521']},2028,4742
5097,Kombikraftwerk,OCGT,OCGT,PP,DE,46.6,0.0,0.0,0.0,1993,1993.0,51.46561,12.592039999999999,{'OPSD': ['BNA0233']},2033,4530
5099,Kwk anlage,CCGT,CCGT,PP,DE,14.8,0.0,0.0,0.0,2002,2002.0,53.12099,8.734776,{'OPSD': ['BNA1334']},2042,5739
5100,Kwk anlage krefeld,CCGT,CCGT,PP,DE,39.8,0.0,0.0,0.0,1999,1999.0,51.339183,6.664238,"{'OPSD': ['BNA0556a', 'BNA0556b']}",2039,4638
5101,Kwk aos gmbh,OCGT,OCGT,PP,DE,30.7,0.0,0.0,0.0,2012,2012.0,53.65752,9.50198,{'OPSD': ['BNA1437']},2052,5669
5102,Köln godorf,oil,CCGT,PP,DE,114.4,0.0,0.0,0.0,2004,2004.0,50.85475,6.98084,{'OPSD': ['BNA0547']},2044,4659
5103,Landesbergen,OCGT,OCGT,PP,DE,56.0,0.0,0.0,0.0,1973,1973.0,52.54585,9.11363,{'OPSD': ['BNA0574a']},2013,4743
5108,Magirusstraße,coal,OCGT,CHP,DE,20.7,0.0,0.0,0.0,1992,1992.0,48.397040000000004,9.964839999999999,{'OPSD': ['BNA1405a']},2037,3476
5109,Mannheim,waste,OCGT,CHP,DE,44.7,0.0,0.0,0.0,2006,2012.0,49.522585,8.452929999999999,"{'OPSD': ['BNA0641a', 'BNA0641b', 'BNA0640', 'BNA0641c']}",2037,4722
5112,Meggle,OCGT,OCGT,PP,DE,15.1,0.0,0.0,0.0,2000,2000.0,48.056351,12.185174,{'OPSD': ['BNA1238']},2040,3304
5114,Merheim,CCGT,CCGT,CHP,DE,15.8,0.0,0.0,0.0,2001,2001.0,50.94308239,7.085239192,{'OPSD': ['BNA1183']},2041,4659
5115,Merkenich,lignite,OCGT,CHP,DE,75.3,0.0,0.0,0.0,2010,2010.0,51.01781,6.96435,{'OPSD': ['BNA0543']},2055,4650
5116,Mhkw,waste,OCGT,CHP,DE,44.0,0.0,0.0,0.0,2012,2012.0,53.114562,8.818186,{'OPSD': ['BNA1114']},2037,5662
5117,Mhkw,waste,OCGT,CHP,DE,9.0,0.0,0.0,0.0,1988,1988.0,47.856134000000004,12.134085,{'OPSD': ['BNA0845']},2013,3304
5118,Mhkw burgkirchen,waste,OCGT,CHP,DE,12.5,0.0,0.0,0.0,1994,1994.0,48.18508,12.73606,{'OPSD': ['BNA1119']},2019,3318
5119,Mhkw frankfurt,waste,OCGT,CHP,DE,72.5,0.0,0.0,0.0,1969,2006.0,50.16172,8.636105,"{'OPSD': ['BNA0287b', 'BNA0287a']}",2031,4781
5120,Mhkw mainz,waste,OCGT,CHP,DE,15.6,0.0,0.0,0.0,2009,2009.0,50.02594000000001,8.24183,{'OPSD': ['BNA1199']},2034,4618
5121,Mhkw rothensee,waste,OCGT,CHP,DE,58.4,0.0,0.0,0.0,2005,2006.0,52.185340000000004,11.67906,"{'OPSD': ['BNA0622', 'BNA0623']}",2031,4505
5124,Miro,oil,OCGT,PP,DE,70.0,0.0,0.0,0.0,1995,1995.0,49.06081,8.32439,"{'OPSD': ['BNA0516', 'BNA0517']}",2035,3466
5125,Mitte,CCGT,CCGT,PP,DE,544.5,0.0,0.0,0.0,1992,2005.0,49.51384,8.431533000000002,"{'OPSD': ['BNA0614b', 'BNA0614a']}",2045,4722
5126,Mitte,CCGT,CCGT,CHP,DE,94.0,0.0,0.0,0.0,1971,2010.0,52.278611,10.514722,"{'OPSD': ['BNA0135', 'BNA0136']}",2050,4775
5127,Mittelsbüren,other,OCGT,PP,DE,160.0,0.0,0.0,0.0,1975,2002.0,53.12891,8.68524,{'OPSD': ['BNA0142']},2007,5739
5128,Mittelsbüren,oil,OCGT,PP,DE,86.0,0.0,0.0,0.0,1975,1975.0,53.12891,8.68524,{'OPSD': ['BNA0141']},2015,5739
5130,Mkva krefeld,waste,OCGT,PP,DE,33.1,0.0,0.0,0.0,1976,2002.0,51.38038,6.63732,"{'OPSD': ['BNA1186c', 'BNA1186a', 'BNA1186b', 'BNA1186e', 'BNA1186d']}",2027,4638
5131,Moabit,oil,OCGT,PP,DE,34.0,0.0,0.0,0.0,1971,1971.0,52.53735111,13.34611416,{'OPSD': ['BNA0085b']},2011,5539
5132,Modellkraftwerk,coal,OCGT,CHP,DE,179.0,0.0,0.0,0.0,1982,1982.0,49.249018,6.879244,{'OPSD': ['BNA0998']},2027,4608
5135,Mva bielefeld,waste,OCGT,PP,DE,34.0,0.0,0.0,0.0,1981,1981.0,52.04269,8.60719,{'OPSD': ['BNA0097']},2006,4749
5136,Mva hamm,waste,OCGT,PP,DE,14.6,0.0,0.0,0.0,1986,1986.0,51.68039,7.7442199999999985,{'OPSD': ['BNA1148']},2011,4644
5137,Mva ingolstadt,waste,OCGT,PP,DE,25.5,0.0,0.0,0.0,1984,1984.0,48.7645,11.49185,{'OPSD': ['BNA1161']},2009,3305
5138,Mva weisweiler,waste,OCGT,PP,DE,27.0,0.0,0.0,0.0,1996,1996.0,50.83859,6.3211699999999995,{'OPSD': ['BNA1020']},2021,4625
5140,Mvr müllverwertung rugenberger damm gmbh & co. kg,waste,OCGT,PP,DE,24.0,0.0,0.0,0.0,1999,1999.0,53.52088514,9.934773445,{'OPSD': ['BNA0398']},2024,5677
5141,Müllheizkraftwerk,waste,OCGT,CHP,DE,14.7,0.0,0.0,0.0,1985,1985.0,51.2976283,9.52410538,{'OPSD': ['BNA1168']},2010,4742
5142,Müllheizkraftwerk offenbach,waste,OCGT,CHP,DE,14.5,0.0,0.0,0.0,1972,1972.0,50.065329999999996,8.76898,{'OPSD': ['BNA1222']},1997,4716
5143,Müllkraftwerk schwandorf,waste,OCGT,PP,DE,54.0,0.0,0.0,0.0,1982,1982.0,49.309979999999996,12.08795,{'OPSD': ['BNA1254']},2007,4511
5144,Müllverwertung borsigstraße mvb,biomass,OCGT,PP,DE,20.0,0.0,0.0,0.0,2005,2005.0,53.53188044,10.07459164,{'OPSD': ['BNA0399']},2025,5682
5147,Nms,other,OCGT,CHP,DE,53.6,0.0,0.0,0.0,1974,1974.0,54.0821,10.15,{'OPSD': ['BNA0693']},1979,5684
5148,Nord,coal,OCGT,CHP,DE,61.5,0.0,0.0,0.0,2000,2000.0,51.25292,9.43796,{'OPSD': ['BNA1075a']},2045,4741
5149,Nord,other,CCGT,PP,DE,87.5,0.0,0.0,0.0,1964,2005.0,48.552941,8.407401,{'OPSD': ['BNA0616b']},2010,3464
5150,Nord,OCGT,OCGT,CHP,DE,25.0,0.0,0.0,0.0,1965,1965.0,52.278611,10.514722,{'OPSD': ['BNA0137']},2005,4775
5151,Nord,coal,OCGT,CHP,DE,61.5,0.0,0.0,0.0,2000,2000.0,52.432790000000004,10.78611,{'OPSD': ['BNA1075b']},2045,4773
5152,Nord,waste,OCGT,PP,DE,40.0,0.0,0.0,0.0,1984,1991.0,48.180506,11.639612,"{'OPSD': ['BNA0969c', 'BNA0969a']}",2016,3314
5153,Notstromdiesel,oil,OCGT,PP,DE,0.5,0.0,0.0,0.0,1991,1991.0,49.988217999999996,9.155761,{'OPSD': ['BNA1337d']},2031,4855
5154,Oxea gmbh,other,OCGT,PP,DE,38.0,0.0,0.0,0.0,1929,1929.0,51.52462,6.8011,{'OPSD': ['BNA1399']},1934,4666
5155,P&l werk appeldorn,OCGT,OCGT,PP,DE,11.4,0.0,0.0,0.0,2002,2002.0,51.72967,6.35865,{'OPSD': ['BNA1165']},2042,4640
5156,P&l werk euskirchen,lignite,OCGT,PP,DE,14.5,0.0,0.0,0.0,1991,1991.0,50.65803,6.8101199999999995,{'OPSD': ['BNA1141']},2036,4652
5157,P&l werk jülich,lignite,OCGT,PP,DE,23.2,0.0,0.0,0.0,2013,2013.0,50.91517,6.36935,{'OPSD': ['BNA1164']},2058,4625
5158,P&l werk könnern,lignite,OCGT,PP,DE,20.3,0.0,0.0,0.0,2014,2014.0,51.69784,11.7581,{'OPSD': ['BNA1185']},2059,4561
5159,P&l werk lage,OCGT,OCGT,PP,DE,10.2,0.0,0.0,0.0,2017,2017.0,51.98614,8.807319999999997,{'OPSD': ['BNA1187']},2057,4744
5160,Pd energy gmbh,waste,OCGT,PP,DE,9.9,0.0,0.0,0.0,2010,2010.0,51.62965,12.28922,{'OPSD': ['BNA1108']},2035,4529
5163,Pfaffenwald,OCGT,OCGT,CHP,DE,35.1,0.0,0.0,0.0,1968,1988.0,48.750809999999994,9.1103,"{'OPSD': ['BNA1333a', 'BNA1333b', 'BNA1333c']}",2028,3482
5164,Pforzheim gmbh,biomass,OCGT,CHP,DE,12.3,0.0,0.0,0.0,2004,2004.0,48.89705,8.725,{'OPSD': ['BNA0797']},2024,3471
5165,Pforzheim gmbh,CCGT,CCGT,CHP,DE,41.2,0.0,0.0,0.0,1980,1980.0,48.88316,8.6653,{'OPSD': ['BNA0800']},2020,3471
5167,Pkv,biomass,CCGT,PP,DE,1.92,0.0,0.0,0.0,2006,2006.0,53.403169999999996,8.128210000000001,{'OPSD': ['BNA1335c']},2026,5657
5168,Pkv,OCGT,OCGT,PP,DE,58.58,0.0,0.0,0.0,1968,1989.0,53.403169999999996,8.128210000000001,"{'OPSD': ['BNA1335b', 'BNA1335a']}",2029,5657
5169,Plattling,CCGT,CCGT,PP,DE,118.5,0.0,0.0,0.0,2010,2010.0,48.787420000000004,12.88246,{'OPSD': ['BNA0805']},2050,3324
5175,Raffinerie heide,oil,OCGT,PP,DE,44.5,0.0,0.0,0.0,1962,1962.0,54.154861,9.076647,{'OPSD': ['BNA1526']},2002,5664
5176,Rag anthrazit ibbenbüren gmbh,other,OCGT,PP,DE,33.4,0.0,0.0,0.0,2000,2000.0,52.28588,7.74613,{'OPSD': ['BNA0492']},2005,4700
5178,Remondis thermische abfallverwertung gmbh,waste,OCGT,PP,DE,24.0,0.0,0.0,0.0,2008,2008.0,51.86615,11.576296000000001,{'OPSD': ['BNA1262']},2033,4503
5179,Reno medici,coal,OCGT,PP,DE,19.24,0.0,0.0,0.0,1923,1923.0,51.39139,8.073039999999999,{'OPSD': ['BNA1331']},1968,4692
5183,Restabfallbehandlungsanlage,waste,OCGT,PP,DE,12.1,0.0,0.0,0.0,2007,2007.0,50.63879437,10.68695146,{'OPSD': ['BNA1286']},2032,4764
5184,Restmüll stuttgart münster,coal,OCGT,CHP,DE,90.0,0.0,0.0,0.0,1982,1984.0,48.81583300000001,9.221111,"{'OPSD': ['BNA0935', 'BNA0936']}",2029,3507
5185,Reuter,waste,OCGT,PP,DE,36.0,0.0,0.0,0.0,1998,1998.0,52.532146,13.246072,{'OPSD': ['BNA0084']},2023,5539
5186,Rheinkraftwerk ryburg schwörstadt,hydro,Run-Of-River,PP,DE,30.0,0.0,0.0,0.0,1930,1984.0,47.585377,7.832657000000001,{'OPSD': ['BNA0859']},2084,3458
5187,Rmva köln,waste,OCGT,PP,DE,45.1,0.0,0.0,0.0,1998,1998.0,51.0003,6.94358,{'OPSD': ['BNA1184']},2023,4650
5188,Rzr herten,waste,OCGT,PP,DE,35.0,0.0,0.0,0.0,1982,2009.0,51.55728,7.164060000000001,"{'OPSD': ['BNA1154', 'BNA1155']}",2034,4676
5189,Römerbrücke,CCGT,CCGT,CHP,DE,75.0,0.0,0.0,0.0,2005,2005.0,49.223898999999996,7.0148990000000015,{'OPSD': ['BNA0861a']},2045,4608
5190,Rüdersdorf,waste,OCGT,PP,DE,30.0,0.0,0.0,0.0,2009,2009.0,52.49028000000001,13.829870000000001,{'OPSD': ['BNA0855']},2034,4545
5191,Sachtleben,lignite,OCGT,CHP,DE,27.5,0.0,0.0,0.0,1964,1964.0,51.44089,6.7054300000000016,{'OPSD': ['BNA1451']},2009,4641
5195,Salzgitter,other,OCGT,CHP,DE,288.5,0.0,0.0,0.0,1939,2011.0,52.15790000000001,10.39579,"{'OPSD': ['BNA0865b', 'BNA0864', 'BNA0863']}",2016,4775
5196,Sandreuth,waste,CCGT,CHP,DE,18.0,0.0,0.0,0.0,1996,1996.0,49.438611,11.060556,{'OPSD': ['BNA0746']},2021,4765
5199,Sca mannheim,biomass,OCGT,PP,DE,40.0,0.0,0.0,0.0,2003,2003.0,49.5349,8.46358,{'OPSD': ['BNA0637']},2023,4722
5200,Schildescher straße,OCGT,OCGT,CHP,DE,64.0,0.0,0.0,0.0,1966,1977.0,52.033503,8.539061,"{'OPSD': ['BNA0101', 'BNA0098']}",2017,4749
5201,Schwedt gmbh & co.kg,waste,OCGT,PP,DE,28.9,0.0,0.0,0.0,2011,2011.0,53.083056000000006,14.321442999999999,{'OPSD': ['BNA1255']},2036,5540
5202,Schwerin süd,OCGT,OCGT,CHP,DE,44.9,0.0,0.0,0.0,1994,1994.0,53.57787,11.396469999999999,{'OPSD': ['BNA0896']},2034,5534
5205,Sindelfingen,OCGT,OCGT,CHP,DE,95.0,0.0,0.0,0.0,2013,2013.0,48.697222,8.999167,{'OPSD': ['BNA1260']},2053,3474
5206,Sita abfallverwertung gmbh,waste,OCGT,PP,DE,25.4,0.0,0.0,0.0,2005,2005.0,51.18158,12.01965,{'OPSD': ['BNA1198']},2030,4561
5207,Skw diesel,oil,OCGT,PP,DE,10.5,0.0,0.0,0.0,1978,1978.0,47.683464,10.31911,{'OPSD': ['BNA1007b']},2018,3490
5208,Skw gasturbine,oil,OCGT,PP,DE,24.0,0.0,0.0,0.0,1988,1988.0,47.683464,10.31911,{'OPSD': ['BNA1007a']},2028,3490
5212,Spitzenlastanlage barmen,oil,CCGT,PP,DE,60.0,0.0,0.0,0.0,2008,2008.0,51.268889,7.200278,{'OPSD': ['BNA1083']},2048,4670
5213,Spitzenlastkraftwerk großkayna,oil,OCGT,PP,DE,120.0,0.0,0.0,0.0,1994,1994.0,51.29192000000001,11.94645,{'OPSD': ['BNA0373']},2034,4561
5214,Spitzenlastkraftwerk sermuth,oil,OCGT,PP,DE,17.0,0.0,0.0,0.0,1995,1995.0,51.161367999999996,12.781496,{'OPSD': ['BNA0369']},2035,4524
5216,Staudinger,OCGT,OCGT,PP,DE,572.0,0.0,0.0,0.0,1977,1977.0,50.08855300000001,8.953399000000003,{'OPSD': ['BNA0374']},2017,4733
5217,Steinbeis energie,waste,OCGT,PP,DE,17.0,0.0,0.0,0.0,2010,2010.0,53.78181,9.42577,{'OPSD': ['BNA1330']},2035,5669
5220,Stuttgart gaisburg,coal,OCGT,CHP,DE,22.6,0.0,0.0,0.0,2009,2009.0,48.782453000000004,9.231483,{'OPSD': ['BNA0934']},2054,3507
5221,Stw,OCGT,OCGT,PP,DE,19.1,0.0,0.0,0.0,1997,1997.0,50.87413,13.39436,{'OPSD': ['BNA1407']},2037,4560
5224,Tiefstack,CCGT,CCGT,CHP,DE,127.0,0.0,0.0,0.0,2009,2009.0,53.52672755,10.06583691,{'OPSD': ['BNA0400']},2049,5682
5227,Trianel gaskraftwerk,CCGT,CCGT,PP,DE,851.2,0.0,0.0,0.0,1990,2008.0,51.67395,7.92915,"{'OPSD': ['BNA1465d', 'BNA0411', 'BNA0410']}",2048,4644
5228,Trv buschhaus,waste,OCGT,PP,DE,37.5,0.0,0.0,0.0,1999,1999.0,52.17138,10.97637,{'OPSD': ['BNA0438']},2024,4504
5229,Turbosatz,waste,OCGT,PP,DE,20.7,0.0,0.0,0.0,1984,1998.0,49.793,9.994060000000001,"{'OPSD': ['BNA1449b', 'BNA1449a']}",2023,4759
5233,Upm schongau,other,OCGT,PP,DE,6.0,0.0,0.0,0.0,1989,1989.0,47.80811,10.902510000000001,{'OPSD': ['BNA1249']},1994,3323
5234,Uppenborn,hydro,Run-Of-River,PP,DE,18.0,0.0,0.0,0.0,1951,1951.0,48.515233,12.101041,{'OPSD': ['BNA1267']},2051,3303
5235,Utb,biomass,OCGT,PP,DE,16.0,0.0,0.0,0.0,2002,2002.0,52.07778,13.51725,{'OPSD': ['BNA0055']},2022,4535
5242,Ville berrenrath,lignite,OCGT,PP,DE,98.0,0.0,0.0,0.0,1917,1917.0,50.86138,6.8406600000000015,{'OPSD': ['BNA0491']},1962,4779
5245,Walheim,oil,OCGT,PP,DE,136.0,0.0,0.0,0.0,1981,1981.0,49.017472,9.157389,{'OPSD': ['BNA1004']},2021,4852
5246,Wedel,oil,OCGT,PP,DE,101.0,0.0,0.0,0.0,1972,1972.0,53.56625104,9.728479385,"{'OPSD': ['BNA1015', 'BNA1016']}",2012,5676
5247,Weisweiler,OCGT,OCGT,PP,DE,400.0,0.0,0.0,0.0,2006,2006.0,50.839166999999996,6.321111,"{'OPSD': ['BNA1024', 'BNA1023']}",2046,4625
5248,Werk clauen,OCGT,OCGT,PP,DE,15.8,0.0,0.0,0.0,2003,2003.0,52.2321963,10.033285000000001,{'OPSD': ['BNA1499']},2043,4770
5249,Werk klein wanzleben,OCGT,OCGT,PP,DE,23.4,0.0,0.0,0.0,1994,1994.0,52.070093,11.385306,{'OPSD': ['BNA1506']},2034,4504
5250,Werk nordstemmen,OCGT,OCGT,PP,DE,30.6,0.0,0.0,0.0,1953,1953.0,52.16921,9.7909,{'OPSD': ['BNA1498']},1993,4770
5251,Werk uelzen,coal,OCGT,PP,DE,40.0,0.0,0.0,0.0,1965,1965.0,52.975181299999996,10.557397400000001,{'OPSD': ['BNA1500']},2010,5673
5252,Werkskraftwerk sappi alfeld,hydro,Run-Of-River,PP,DE,0.1,0.0,0.0,0.0,1912,1912.0,51.98513,9.822460000000001,{'OPSD': ['BNA0012c']},2012,4763
5253,Werkskraftwerk sappi alfeld,biomass,OCGT,PP,DE,13.0,0.0,0.0,0.0,2003,2003.0,51.984761,9.822830999999999,{'OPSD': ['BNA0012a']},2023,4763
5254,Werkskraftwerk sappi alfeld,OCGT,OCGT,PP,DE,11.0,0.0,0.0,0.0,1947,1947.0,51.98513,9.822460000000001,{'OPSD': ['BNA0012b']},1987,4763
5255,Werkskraftwerk sappi ehingen,OCGT,OCGT,PP,DE,4.0,0.0,0.0,0.0,1977,1977.0,48.26693,9.72626,{'OPSD': ['BNA0232c']},2017,3476
5256,West,OCGT,OCGT,CHP,DE,12.8,0.0,0.0,0.0,2001,2001.0,52.026244,8.866597,{'OPSD': ['BNA1193']},2041,4752
5257,West,coal,OCGT,CHP,DE,138.5,0.0,0.0,0.0,1985,1985.0,51.25292,9.43796,{'OPSD': ['BNA1076a']},2030,4741
5258,West,coal,OCGT,CHP,DE,138.5,0.0,0.0,0.0,1985,1985.0,52.44223,10.76454,{'OPSD': ['BNA1076b']},2030,4773
